[
  {
    "city": "Zurgena",
    "province": "Ceuta",
    "lat": 37.34218,
    "lng": -2.03985
  },
  {
    "city": "Zúñiga",
    "province": "Navarra",
    "lat": 37.79887,
    "lng": -1.70456
  },
  {
    "city": "Zulema",
    "province": "54",
    "lat": 39.23333,
    "lng": -1.38333
  },
  {
    "city": "Zújar",
    "province": "Ceuta",
    "lat": 38.56667,
    "lng": -5.31667
  },
  {
    "city": "Zújar",
    "province": "Ceuta",
    "lat": 37.54285,
    "lng": -2.84197
  },
  {
    "city": "Zujaira",
    "province": "Ceuta",
    "lat": 37.25663,
    "lng": -3.80453
  },
  {
    "city": "Zuheros",
    "province": "Ceuta",
    "lat": 37.54332,
    "lng": -4.31531
  },
  {
    "city": "Zufre",
    "province": "Ceuta",
    "lat": 37.83333,
    "lng": -6.33333
  },
  {
    "city": "Zubia",
    "province": "Ceuta",
    "lat": 37.11906,
    "lng": -3.584
  },
  {
    "city": "Zorita",
    "province": "57",
    "lat": 39.28522,
    "lng": -5.69973
  },
  {
    "city": "Zorio",
    "province": "54",
    "lat": 38.69575,
    "lng": -2.39994
  },
  {
    "city": "Zocueca",
    "province": "Ceuta",
    "lat": 38.09094,
    "lng": -3.83645
  },
  {
    "city": "Zeneta",
    "province": "Navarra",
    "lat": 38.01106,
    "lng": -0.9967
  },
  {
    "city": "Zarzales",
    "province": "Ceuta",
    "lat": 37.18281,
    "lng": -2.33
  },
  {
    "city": "Zarza la Mayor",
    "province": "57",
    "lat": 39.87692,
    "lng": -6.86211
  },
  {
    "city": "Zarzaíca",
    "province": "Ceuta",
    "lat": 37.59539,
    "lng": -3.89015
  },
  {
    "city": "Zarzadilla de Totana",
    "province": "Navarra",
    "lat": 37.87852,
    "lng": -1.7073
  },
  {
    "city": "Zarza de Montánchez",
    "province": "57",
    "lat": 39.25756,
    "lng": -6.03248
  },
  {
    "city": "Zarza de Alange",
    "province": "57",
    "lat": 38.81814,
    "lng": -6.21756
  },
  {
    "city": "Zarza Capilla",
    "province": "57",
    "lat": 38.80711,
    "lng": -5.15682
  },
  {
    "city": "Zarza",
    "province": "53",
    "lat": 28.23561,
    "lng": -16.4644
  },
  {
    "city": "Zarra",
    "province": "60",
    "lat": 39.09175,
    "lng": -1.07532
  },
  {
    "city": "Zarcilla de Ramos",
    "province": "Navarra",
    "lat": 37.84405,
    "lng": -1.87626
  },
  {
    "city": "Zarandona",
    "province": "Navarra",
    "lat": 38.0097,
    "lng": -1.11106
  },
  {
    "city": "Zapateros",
    "province": "54",
    "lat": 38.5468,
    "lng": -2.5031
  },
  {
    "city": "Zapateros",
    "province": "Ceuta",
    "lat": 37.43333,
    "lng": -4.61667
  },
  {
    "city": "Zancarrón",
    "province": "Ceuta",
    "lat": 36.91667,
    "lng": -6.08333
  },
  {
    "city": "Zamoranos",
    "province": "Ceuta",
    "lat": 37.52593,
    "lng": -4.16485
  },
  {
    "city": "Zamorano",
    "province": "53",
    "lat": 28.45703,
    "lng": -16.36204
  },
  {
    "city": "Zamora",
    "province": "Ceuta",
    "lat": 37.6154,
    "lng": -3.37057
  },
  {
    "city": "Zambra",
    "province": "Ceuta",
    "lat": 37.38457,
    "lng": -4.3865
  },
  {
    "city": "Zalamea la Real",
    "province": "Ceuta",
    "lat": 37.68012,
    "lng": -6.65977
  },
  {
    "city": "Zalamea de la Serena",
    "province": "57",
    "lat": 38.65131,
    "lng": -5.66063
  },
  {
    "city": "Zahinos",
    "province": "57",
    "lat": 38.33135,
    "lng": -6.95533
  },
  {
    "city": "Zahara de los Atunes",
    "province": "Ceuta",
    "lat": 36.1369,
    "lng": -5.84591
  },
  {
    "city": "Zahara",
    "province": "Ceuta",
    "lat": 36.84055,
    "lng": -5.39128
  },
  {
    "city": "Zagrilla",
    "province": "Ceuta",
    "lat": 37.48725,
    "lng": -4.2421
  },
  {
    "city": "Zagra",
    "province": "Ceuta",
    "lat": 37.25561,
    "lng": -4.16905
  },
  {
    "city": "Zafra de Záncara",
    "province": "54",
    "lat": 39.89203,
    "lng": -2.55786
  },
  {
    "city": "Zafra",
    "province": "57",
    "lat": 38.42539,
    "lng": -6.41734
  },
  {
    "city": "Zafra",
    "province": "60",
    "lat": 38.41667,
    "lng": -0.86667
  },
  {
    "city": "Zafarraya",
    "province": "Ceuta",
    "lat": 36.97554,
    "lng": -4.14442
  },
  {
    "city": "Yunquera",
    "province": "Ceuta",
    "lat": 36.73252,
    "lng": -4.92122
  },
  {
    "city": "Yetas de Abajo",
    "province": "54",
    "lat": 38.2352,
    "lng": -2.32702
  },
  {
    "city": "Yeste",
    "province": "54",
    "lat": 38.36852,
    "lng": -2.31756
  },
  {
    "city": "Yepes",
    "province": "54",
    "lat": 39.90199,
    "lng": -3.62517
  },
  {
    "city": "Yémeda",
    "province": "54",
    "lat": 39.76667,
    "lng": -1.71667
  },
  {
    "city": "Yegen",
    "province": "Ceuta",
    "lat": 36.98103,
    "lng": -3.119
  },
  {
    "city": "Yecla",
    "province": "Navarra",
    "lat": 38.61365,
    "lng": -1.11468
  },
  {
    "city": "Yéchar",
    "province": "Navarra",
    "lat": 38.07406,
    "lng": -1.44132
  },
  {
    "city": "Ye",
    "province": "53",
    "lat": 29.1913,
    "lng": -13.48115
  },
  {
    "city": "Yátova",
    "province": "60",
    "lat": 39.38333,
    "lng": -0.8
  },
  {
    "city": "Yátor",
    "province": "Ceuta",
    "lat": 36.95778,
    "lng": -3.13677
  },
  {
    "city": "Yaiza",
    "province": "53",
    "lat": 28.95678,
    "lng": -13.76535
  },
  {
    "city": "Vueltas",
    "province": "53",
    "lat": 28.08195,
    "lng": -17.33339
  },
  {
    "city": "Víznar",
    "province": "Ceuta",
    "lat": 37.23149,
    "lng": -3.55382
  },
  {
    "city": "Vizcota",
    "province": "60",
    "lat": 39.93333,
    "lng": -1.05
  },
  {
    "city": "Vizcantar",
    "province": "Ceuta",
    "lat": 37.46667,
    "lng": -4.03333
  },
  {
    "city": "Viveros",
    "province": "54",
    "lat": 38.7726,
    "lng": -2.57449
  },
  {
    "city": "Viver",
    "province": "60",
    "lat": 39.91667,
    "lng": -0.6
  },
  {
    "city": "Vites",
    "province": "Ceuta",
    "lat": 38.16389,
    "lng": -2.4773
  },
  {
    "city": "Vite",
    "province": "Navarra",
    "lat": 38.15969,
    "lng": -1.44677
  },
  {
    "city": "Vista Ramos",
    "province": "53",
    "lat": 28.32148,
    "lng": -16.41849
  },
  {
    "city": "Vista Hermosa de la Cruz",
    "province": "60",
    "lat": 38.36595,
    "lng": -0.46288
  },
  {
    "city": "Vista Hermosa",
    "province": "Ceuta",
    "lat": 36.58586,
    "lng": -6.26794
  },
  {
    "city": "Vista Bella",
    "province": "Navarra",
    "lat": 37.88333,
    "lng": -1.36667
  },
  {
    "city": "Vista Alegre",
    "province": "Ceuta",
    "lat": 38.30819,
    "lng": -3.65645
  },
  {
    "city": "Vista Alegre",
    "province": "Ceuta",
    "lat": 37.90376,
    "lng": -4.14677
  },
  {
    "city": "Vista Alegre",
    "province": "Ceuta",
    "lat": 37.78333,
    "lng": -3.61667
  },
  {
    "city": "Vista Alegre",
    "province": "Ceuta",
    "lat": 37.68333,
    "lng": -6.6
  },
  {
    "city": "Viso del Marqués",
    "province": "54",
    "lat": 38.52208,
    "lng": -3.56348
  },
  {
    "city": "Virgen de la Cabeza",
    "province": "Ceuta",
    "lat": 38.18137,
    "lng": -4.04036
  },
  {
    "city": "Virgen de Gracia",
    "province": "60",
    "lat": 39.95741,
    "lng": -0.12394
  },
  {
    "city": "Viquejos",
    "province": "Navarra",
    "lat": 37.5735,
    "lng": -1.5091
  },
  {
    "city": "Viñuelas de Arriba",
    "province": "57",
    "lat": 40.00987,
    "lng": -6.30692
  },
  {
    "city": "Viñuelas de Abajo",
    "province": "57",
    "lat": 39.98333,
    "lng": -6.3
  },
  {
    "city": "Viñuelas",
    "province": "60",
    "lat": 39.33333,
    "lng": -1.0
  },
  {
    "city": "Viñuela",
    "province": "Ceuta",
    "lat": 36.86307,
    "lng": -4.14124
  },
  {
    "city": "Viña Vieja",
    "province": "53",
    "lat": 28.52784,
    "lng": -16.21246
  },
  {
    "city": "Vinalesa",
    "province": "60",
    "lat": 39.53333,
    "lng": -0.36667
  },
  {
    "city": "Viña de Raja",
    "province": "Navarra",
    "lat": 37.63153,
    "lng": -1.31951
  },
  {
    "city": "Villora",
    "province": "54",
    "lat": 39.75,
    "lng": -1.58333
  },
  {
    "city": "Villena",
    "province": "60",
    "lat": 38.6373,
    "lng": -0.86568
  },
  {
    "city": "Villegas",
    "province": "54",
    "lat": 38.60511,
    "lng": -1.58254
  },
  {
    "city": "Villavieja",
    "province": "60",
    "lat": 39.85,
    "lng": -0.18333
  },
  {
    "city": "Villaviciosa de Córdoba",
    "province": "Ceuta",
    "lat": 38.08333,
    "lng": -5.01667
  },
  {
    "city": "Villaverde y Pasaconsol",
    "province": "54",
    "lat": 39.77099,
    "lng": -2.26552
  },
  {
    "city": "Villaverde del Río",
    "province": "Ceuta",
    "lat": 37.58919,
    "lng": -5.87443
  },
  {
    "city": "Villaverde de Guadalimar",
    "province": "54",
    "lat": 38.45525,
    "lng": -2.51782
  },
  {
    "city": "Villaverde",
    "province": "54",
    "lat": 38.79816,
    "lng": -2.3709
  },
  {
    "city": "Villaverde",
    "province": "53",
    "lat": 28.63262,
    "lng": -13.90407
  },
  {
    "city": "Villavaliente",
    "province": "54",
    "lat": 39.12646,
    "lng": -1.45712
  },
  {
    "city": "Villatoya",
    "province": "54",
    "lat": 39.33333,
    "lng": -1.3
  },
  {
    "city": "Villatorcas",
    "province": "60",
    "lat": 39.83333,
    "lng": -0.43333
  },
  {
    "city": "Villatobas",
    "province": "54",
    "lat": 39.90187,
    "lng": -3.32386
  },
  {
    "city": "Villas Viejas",
    "province": "54",
    "lat": 39.90434,
    "lng": -2.7247
  },
  {
    "city": "Villasequilla de Yepes",
    "province": "54",
    "lat": 39.87582,
    "lng": -3.7311
  },
  {
    "city": "Villaseca de la Sagra",
    "province": "54",
    "lat": 39.96185,
    "lng": -3.88291
  },
  {
    "city": "Villarta de San Juan",
    "province": "54",
    "lat": 39.23785,
    "lng": -3.42333
  },
  {
    "city": "Villarta de los Montes",
    "province": "57",
    "lat": 39.21386,
    "lng": -4.79227
  },
  {
    "city": "Villarta",
    "province": "54",
    "lat": 39.45,
    "lng": -1.65
  },
  {
    "city": "Villarrubio",
    "province": "54",
    "lat": 39.94511,
    "lng": -2.89431
  },
  {
    "city": "Villarrubia de Santiago",
    "province": "54",
    "lat": 39.98555,
    "lng": -3.36898
  },
  {
    "city": "Villarrubia de los Ojos",
    "province": "54",
    "lat": 39.22085,
    "lng": -3.60802
  },
  {
    "city": "Villarrubia",
    "province": "Ceuta",
    "lat": 37.85,
    "lng": -4.9
  },
  {
    "city": "Villarrodrigo",
    "province": "Ceuta",
    "lat": 38.48333,
    "lng": -2.6
  },
  {
    "city": "Villarrobledo",
    "province": "54",
    "lat": 39.26992,
    "lng": -2.60119
  },
  {
    "city": "Villarreal de San Carlos",
    "province": "57",
    "lat": 39.84746,
    "lng": -6.02949
  },
  {
    "city": "Villarreal",
    "province": "57",
    "lat": 38.72572,
    "lng": -7.21533
  },
  {
    "city": "Villarrasa",
    "province": "Ceuta",
    "lat": 37.38849,
    "lng": -6.60641
  },
  {
    "city": "Villaricos",
    "province": "Ceuta",
    "lat": 37.25086,
    "lng": -1.76876
  },
  {
    "city": "Villargordo del Cabriel",
    "province": "60",
    "lat": 39.53333,
    "lng": -1.43333
  },
  {
    "city": "Villargordo",
    "province": "Ceuta",
    "lat": 37.94042,
    "lng": -3.72949
  },
  {
    "city": "Villar Gordo",
    "province": "Ceuta",
    "lat": 37.66042,
    "lng": -6.43447
  },
  {
    "city": "Villares del Saz",
    "province": "54",
    "lat": 39.84109,
    "lng": -2.50427
  },
  {
    "city": "Villares",
    "province": "54",
    "lat": 38.4325,
    "lng": -2.03548
  },
  {
    "city": "Villarejo Seco",
    "province": "54",
    "lat": 39.9766,
    "lng": -2.38885
  },
  {
    "city": "Villarejo-Periesteban",
    "province": "54",
    "lat": 39.87231,
    "lng": -2.44145
  },
  {
    "city": "Villarejo de Montalbán",
    "province": "54",
    "lat": 39.76913,
    "lng": -4.57314
  },
  {
    "city": "Villarejo de Fuentes",
    "province": "54",
    "lat": 39.78809,
    "lng": -2.6968
  },
  {
    "city": "Villarejo",
    "province": "54",
    "lat": 38.59444,
    "lng": -2.02364
  },
  {
    "city": "Vila-real",
    "province": "60",
    "lat": 39.9383,
    "lng": -0.10087
  },
  {
    "city": "Villardompardo",
    "province": "Ceuta",
    "lat": 37.83735,
    "lng": -4.00051
  },
  {
    "city": "Villar de Ves",
    "province": "54",
    "lat": 39.21667,
    "lng": -1.25
  },
  {
    "city": "Villar de Tejas",
    "province": "60",
    "lat": 39.63333,
    "lng": -1.08333
  },
  {
    "city": "Villar de Rena",
    "province": "57",
    "lat": 39.07651,
    "lng": -5.81074
  },
  {
    "city": "Villar de Olmos",
    "province": "60",
    "lat": 39.6,
    "lng": -1.06667
  },
  {
    "city": "Villar del Saz de Arcas",
    "province": "54",
    "lat": 39.95,
    "lng": -2.06667
  },
  {
    "city": "Villar del Rey",
    "province": "57",
    "lat": 39.1331,
    "lng": -6.84762
  },
  {
    "city": "Villar del Pozo",
    "province": "54",
    "lat": 38.8501,
    "lng": -3.96405
  },
  {
    "city": "Villar del Pedroso",
    "province": "57",
    "lat": 39.70631,
    "lng": -5.19583
  },
  {
    "city": "Villar del Humo",
    "province": "54",
    "lat": 39.86667,
    "lng": -1.63333
  },
  {
    "city": "Villar del Arzobispo",
    "province": "60",
    "lat": 39.73333,
    "lng": -0.81667
  },
  {
    "city": "Villar del Águila",
    "province": "54",
    "lat": 39.96551,
    "lng": -2.53629
  },
  {
    "city": "Villar de la Encina",
    "province": "54",
    "lat": 39.63725,
    "lng": -2.52155
  },
  {
    "city": "Villar de Cuevas",
    "province": "Ceuta",
    "lat": 37.85823,
    "lng": -3.80601
  },
  {
    "city": "Villar de Chinchilla",
    "province": "54",
    "lat": 38.90059,
    "lng": -1.52823
  },
  {
    "city": "Villar de Cantos",
    "province": "54",
    "lat": 39.47078,
    "lng": -2.34383
  },
  {
    "city": "Villar de Cañas",
    "province": "54",
    "lat": 39.7786,
    "lng": -2.56428
  },
  {
    "city": "Villarán",
    "province": "Ceuta",
    "lat": 37.44641,
    "lng": -6.24566
  },
  {
    "city": "Villaralto",
    "province": "Ceuta",
    "lat": 38.45,
    "lng": -4.98333
  },
  {
    "city": "Villar",
    "province": "Ceuta",
    "lat": 37.62868,
    "lng": -5.04638
  },
  {
    "city": "Villapalacios",
    "province": "54",
    "lat": 38.575,
    "lng": -2.63384
  },
  {
    "city": "Villanueva de Tapia",
    "province": "Ceuta",
    "lat": 37.18276,
    "lng": -4.33383
  },
  {
    "city": "Villanueva de San Juan",
    "province": "Ceuta",
    "lat": 37.04955,
    "lng": -5.1754
  },
  {
    "city": "Villanueva de San Carlos",
    "province": "54",
    "lat": 38.62173,
    "lng": -3.90903
  },
  {
    "city": "Villanueva de Río Segura",
    "province": "Navarra",
    "lat": 38.13572,
    "lng": -1.32455
  },
  {
    "city": "Villanueva de Mesía",
    "province": "Ceuta",
    "lat": 37.21454,
    "lng": -4.01404
  },
  {
    "city": "Villanueva del Trabuco",
    "province": "Ceuta",
    "lat": 37.02832,
    "lng": -4.33891
  },
  {
    "city": "Villanueva del Rosario",
    "province": "Ceuta",
    "lat": 36.99679,
    "lng": -4.36535
  },
  {
    "city": "Villanueva del Río y Minas",
    "province": "Ceuta",
    "lat": 37.65502,
    "lng": -5.71369
  },
  {
    "city": "Villanueva del Río",
    "province": "Ceuta",
    "lat": 37.6269,
    "lng": -5.68972
  },
  {
    "city": "Villanueva del Rey",
    "province": "Ceuta",
    "lat": 38.2,
    "lng": -5.15
  },
  {
    "city": "Villanueva del Rey",
    "province": "Ceuta",
    "lat": 37.52765,
    "lng": -5.15865
  },
  {
    "city": "Villanueva de los Castillejos",
    "province": "Ceuta",
    "lat": 37.4994,
    "lng": -7.29118
  },
  {
    "city": "Villanueva del Fresno",
    "province": "57",
    "lat": 38.376,
    "lng": -7.16753
  },
  {
    "city": "Villanueva del Duque",
    "province": "Ceuta",
    "lat": 38.38333,
    "lng": -5.0
  },
  {
    "city": "Villanueva de las Torres",
    "province": "Ceuta",
    "lat": 37.55719,
    "lng": -3.08868
  },
  {
    "city": "Villanueva de la Serena",
    "province": "57",
    "lat": 38.97655,
    "lng": -5.7974
  },
  {
    "city": "Villanueva de las Cruces",
    "province": "Ceuta",
    "lat": 37.62783,
    "lng": -7.02359
  },
  {
    "city": "Villanueva del Arzobispo",
    "province": "Ceuta",
    "lat": 38.16842,
    "lng": -3.00742
  },
  {
    "city": "Villanueva del Ariscal",
    "province": "Ceuta",
    "lat": 37.39623,
    "lng": -6.14077
  },
  {
    "city": "Villanueva de la Reina",
    "province": "Ceuta",
    "lat": 38.00432,
    "lng": -3.91603
  },
  {
    "city": "Villanueva de la Jara",
    "province": "54",
    "lat": 39.43333,
    "lng": -1.93333
  },
  {
    "city": "Villanueva de la Fuente",
    "province": "54",
    "lat": 38.69463,
    "lng": -2.69637
  },
  {
    "city": "Villanueva de la Concepción",
    "province": "Ceuta",
    "lat": 36.93027,
    "lng": -4.53041
  },
  {
    "city": "Villanueva de Córdoba",
    "province": "Ceuta",
    "lat": 38.32277,
    "lng": -4.62873
  },
  {
    "city": "Villanueva de Cauche",
    "province": "Ceuta",
    "lat": 36.95363,
    "lng": -4.44179
  },
  {
    "city": "Villanueva de Castellón",
    "province": "60",
    "lat": 39.07741,
    "lng": -0.51167
  },
  {
    "city": "Villanueva de Bogas",
    "province": "54",
    "lat": 39.72347,
    "lng": -3.65743
  },
  {
    "city": "Villanueva de Algaidas",
    "province": "Ceuta",
    "lat": 37.1835,
    "lng": -4.45032
  },
  {
    "city": "Villanueva de Alcardete",
    "province": "54",
    "lat": 39.67321,
    "lng": -3.01445
  },
  {
    "city": "Villanueva",
    "province": "60",
    "lat": 39.71667,
    "lng": -1.15
  },
  {
    "city": "Villamuelas",
    "province": "54",
    "lat": 39.81784,
    "lng": -3.73461
  },
  {
    "city": "Villaminaya",
    "province": "54",
    "lat": 39.71197,
    "lng": -3.87055
  },
  {
    "city": "Villamiel de Toledo",
    "province": "54",
    "lat": 39.96482,
    "lng": -4.12627
  },
  {
    "city": "Villamesías",
    "province": "57",
    "lat": 39.24568,
    "lng": -5.87307
  },
  {
    "city": "Villamayor de Santiago",
    "province": "54",
    "lat": 39.73072,
    "lng": -2.92357
  },
  {
    "city": "Villamayor de Calatrava",
    "province": "54",
    "lat": 38.78763,
    "lng": -4.13774
  },
  {
    "city": "Villamartín",
    "province": "Ceuta",
    "lat": 36.85979,
    "lng": -5.64485
  },
  {
    "city": "Vilamarxant",
    "province": "60",
    "lat": 39.56916,
    "lng": -0.62453
  },
  {
    "city": "Villamanrique de la Condesa",
    "province": "Ceuta",
    "lat": 37.24481,
    "lng": -6.30665
  },
  {
    "city": "Villamanrique",
    "province": "54",
    "lat": 38.54636,
    "lng": -2.99729
  },
  {
    "city": "Villamalur",
    "province": "60",
    "lat": 39.96667,
    "lng": -0.4
  },
  {
    "city": "Villamalea",
    "province": "54",
    "lat": 39.36667,
    "lng": -1.58333
  },
  {
    "city": "Villaluenga del Rosario",
    "province": "Ceuta",
    "lat": 36.69644,
    "lng": -5.38601
  },
  {
    "city": "Villalpardo",
    "province": "54",
    "lat": 39.46667,
    "lng": -1.63333
  },
  {
    "city": "Villalonga",
    "province": "60",
    "lat": 38.88566,
    "lng": -0.20795
  },
  {
    "city": "Villalón",
    "province": "Ceuta",
    "lat": 37.73307,
    "lng": -5.13839
  },
  {
    "city": "Villalgordo del Marquesado",
    "province": "54",
    "lat": 39.68245,
    "lng": -2.50885
  },
  {
    "city": "Villalba de los Barros",
    "province": "57",
    "lat": 38.61294,
    "lng": -6.50914
  },
  {
    "city": "Villalba del Alcor",
    "province": "Ceuta",
    "lat": 37.39731,
    "lng": -6.47461
  },
  {
    "city": "Villajoyosa",
    "province": "60",
    "lat": 38.50754,
    "lng": -0.23346
  },
  {
    "city": "Villahermosa",
    "province": "54",
    "lat": 38.75023,
    "lng": -2.87066
  },
  {
    "city": "Villaharta",
    "province": "Ceuta",
    "lat": 38.13333,
    "lng": -4.9
  },
  {
    "city": "Villagordo del Júcar",
    "province": "54",
    "lat": 39.3,
    "lng": -2.06667
  },
  {
    "city": "Villagonzalo",
    "province": "57",
    "lat": 38.86329,
    "lng": -6.19665
  },
  {
    "city": "Villagarcía del Llano",
    "province": "54",
    "lat": 39.31667,
    "lng": -1.83333
  },
  {
    "city": "Villagarcía de la Torre",
    "province": "57",
    "lat": 38.3,
    "lng": -6.08333
  },
  {
    "city": "Villafranqueza",
    "province": "60",
    "lat": 38.3877,
    "lng": -0.49064
  },
  {
    "city": "Villafranca de los Caballeros",
    "province": "54",
    "lat": 39.42824,
    "lng": -3.36079
  },
  {
    "city": "Villafranca de los Barros",
    "province": "57",
    "lat": 38.56144,
    "lng": -6.3381
  },
  {
    "city": "Villafranca de Córdoba",
    "province": "Ceuta",
    "lat": 37.96257,
    "lng": -4.54547
  },
  {
    "city": "Vilafranca de Bonany",
    "province": "Baleares",
    "lat": 39.56894,
    "lng": 3.08815
  },
  {
    "city": "Villaescusa de Haro",
    "province": "54",
    "lat": 39.5989,
    "lng": -2.67352
  },
  {
    "city": "Villa de Ves",
    "province": "54",
    "lat": 39.2,
    "lng": -1.23333
  },
  {
    "city": "Villa del Río",
    "province": "Ceuta",
    "lat": 37.98108,
    "lng": -4.29003
  },
  {
    "city": "Villa del Rey",
    "province": "57",
    "lat": 39.65955,
    "lng": -6.82122
  },
  {
    "city": "Villa de Don Fadrique",
    "province": "54",
    "lat": 39.61505,
    "lng": -3.21915
  },
  {
    "city": "Villacarrillo",
    "province": "Ceuta",
    "lat": 38.1156,
    "lng": -3.0848
  },
  {
    "city": "Es Castell",
    "province": "Baleares",
    "lat": 39.8776,
    "lng": 4.2899
  },
  {
    "city": "Villacañas",
    "province": "54",
    "lat": 39.62367,
    "lng": -3.33813
  },
  {
    "city": "Villablanca",
    "province": "Ceuta",
    "lat": 37.30239,
    "lng": -7.34413
  },
  {
    "city": "Vilches",
    "province": "Ceuta",
    "lat": 38.20695,
    "lng": -3.51025
  },
  {
    "city": "Vilaflor",
    "province": "53",
    "lat": 28.15623,
    "lng": -16.63592
  },
  {
    "city": "Vicorto",
    "province": "54",
    "lat": 38.42655,
    "lng": -2.01574
  },
  {
    "city": "Vícar",
    "province": "Ceuta",
    "lat": 36.83155,
    "lng": -2.64273
  },
  {
    "city": "Vicácaro",
    "province": "53",
    "lat": 28.12543,
    "lng": -16.57332
  },
  {
    "city": "Viator",
    "province": "Ceuta",
    "lat": 36.89006,
    "lng": -2.42695
  },
  {
    "city": "Vianos",
    "province": "54",
    "lat": 38.63316,
    "lng": -2.50045
  },
  {
    "city": "Vertientes Altas",
    "province": "Ceuta",
    "lat": 37.538,
    "lng": -3.24789
  },
  {
    "city": "Vergel",
    "province": "60",
    "lat": 38.84709,
    "lng": 0.01034
  },
  {
    "city": "Vergara",
    "province": "53",
    "lat": 28.11605,
    "lng": -15.59784
  },
  {
    "city": "Veredas",
    "province": "54",
    "lat": 38.66025,
    "lng": -4.34418
  },
  {
    "city": "Veredas",
    "province": "Ceuta",
    "lat": 37.88535,
    "lng": -6.83119
  },
  {
    "city": "Verdolay",
    "province": "Navarra",
    "lat": 37.93266,
    "lng": -1.13157
  },
  {
    "city": "Verdegás",
    "province": "60",
    "lat": 38.40581,
    "lng": -0.58708
  },
  {
    "city": "Vera de Erque",
    "province": "53",
    "lat": 28.17295,
    "lng": -16.74537
  },
  {
    "city": "Vera",
    "province": "Ceuta",
    "lat": 37.24345,
    "lng": -1.85905
  },
  {
    "city": "Ventosilla",
    "province": "Ceuta",
    "lat": 37.91172,
    "lng": -3.82734
  },
  {
    "city": "Ventorro del Negro",
    "province": "Ceuta",
    "lat": 37.7,
    "lng": -6.28333
  },
  {
    "city": "Ventillas",
    "province": "54",
    "lat": 38.49581,
    "lng": -4.29436
  },
  {
    "city": "Ventavieja",
    "province": "54",
    "lat": 39.60523,
    "lng": -3.70827
  },
  {
    "city": "Venta Valero",
    "province": "Ceuta",
    "lat": 37.40711,
    "lng": -4.01089
  },
  {
    "city": "Ventas de Zafarraya",
    "province": "Ceuta",
    "lat": 36.95812,
    "lng": -4.12142
  },
  {
    "city": "Ventas de Poyo",
    "province": "60",
    "lat": 39.46667,
    "lng": -0.56667
  },
  {
    "city": "Ventas del Carrizal",
    "province": "Ceuta",
    "lat": 37.54158,
    "lng": -3.99508
  },
  {
    "city": "Ventas de Huelma",
    "province": "Ceuta",
    "lat": 37.0684,
    "lng": -3.81983
  },
  {
    "city": "Ventas de Arriba",
    "province": "Ceuta",
    "lat": 37.76663,
    "lng": -6.61756
  },
  {
    "city": "Ventas de Alcolea",
    "province": "54",
    "lat": 39.27924,
    "lng": -2.43397
  },
  {
    "city": "Ventas con Peña Aguilera",
    "province": "54",
    "lat": 39.61033,
    "lng": -4.23128
  },
  {
    "city": "Venta Quinquiller",
    "province": "60",
    "lat": 39.25,
    "lng": -0.41667
  },
  {
    "city": "Venta Quemada",
    "province": "Ceuta",
    "lat": 37.58185,
    "lng": -2.45944
  },
  {
    "city": "Venta Nueva",
    "province": "Ceuta",
    "lat": 38.31469,
    "lng": -3.57012
  },
  {
    "city": "Venta Nueva",
    "province": "Ceuta",
    "lat": 37.46407,
    "lng": -3.47893
  },
  {
    "city": "Venta Nueva",
    "province": "Ceuta",
    "lat": 37.18555,
    "lng": -4.03739
  },
  {
    "city": "Venta de Micena",
    "province": "Ceuta",
    "lat": 37.73261,
    "lng": -2.38954
  },
  {
    "city": "Venta de Mendoza",
    "province": "54",
    "lat": 38.46667,
    "lng": -2.46667
  },
  {
    "city": "Venta del Relleno",
    "province": "Ceuta",
    "lat": 36.92744,
    "lng": -3.28758
  },
  {
    "city": "Venta del Rebollar",
    "province": "60",
    "lat": 39.46667,
    "lng": -0.98333
  },
  {
    "city": "Venta del Pulgar",
    "province": "Ceuta",
    "lat": 37.16983,
    "lng": -4.08766
  },
  {
    "city": "Venta del Potro",
    "province": "60",
    "lat": 38.85169,
    "lng": -0.82167
  },
  {
    "city": "Venta de los Santos",
    "province": "Ceuta",
    "lat": 38.36254,
    "lng": -3.07335
  },
  {
    "city": "Venta del Moro",
    "province": "60",
    "lat": 39.48333,
    "lng": -1.35
  },
  {
    "city": "Venta del Llano",
    "province": "Ceuta",
    "lat": 37.94126,
    "lng": -3.78649
  },
  {
    "city": "Venta del Fraile",
    "province": "Ceuta",
    "lat": 36.98354,
    "lng": -3.72762
  },
  {
    "city": "Venta del Charco",
    "province": "Ceuta",
    "lat": 38.20395,
    "lng": -4.27907
  },
  {
    "city": "Venta de la Virgen",
    "province": "Navarra",
    "lat": 37.86907,
    "lng": -1.12902
  },
  {
    "city": "Venta de las Palas",
    "province": "Navarra",
    "lat": 37.66235,
    "lng": -1.19079
  },
  {
    "city": "Venta del Alto",
    "province": "Ceuta",
    "lat": 37.63856,
    "lng": -6.14636
  },
  {
    "city": "Venta de Cazulas",
    "province": "Ceuta",
    "lat": 36.81667,
    "lng": -3.7
  },
  {
    "city": "Venta de Cárdenas",
    "province": "54",
    "lat": 38.41656,
    "lng": -3.49689
  },
  {
    "city": "Venta de Alhama",
    "province": "54",
    "lat": 38.91353,
    "lng": -1.57032
  },
  {
    "city": "Venta Cabrera",
    "province": "Ceuta",
    "lat": 38.29429,
    "lng": -2.93194
  },
  {
    "city": "Venta Baja",
    "province": "Ceuta",
    "lat": 36.89593,
    "lng": -4.13776
  },
  {
    "city": "Venta Alta",
    "province": "Ceuta",
    "lat": 36.93333,
    "lng": -4.11667
  },
  {
    "city": "Venta",
    "province": "Ceuta",
    "lat": 38.26667,
    "lng": -3.2
  },
  {
    "city": "Velilla",
    "province": "Ceuta",
    "lat": 36.75,
    "lng": -3.6
  },
  {
    "city": "Velhoco",
    "province": "53",
    "lat": 28.68333,
    "lng": -17.78333
  },
  {
    "city": "Velez Rubio",
    "province": "Ceuta",
    "lat": 37.64844,
    "lng": -2.07686
  },
  {
    "city": "Vélez-Málaga",
    "province": "Ceuta",
    "lat": 36.78107,
    "lng": -4.10266
  },
  {
    "city": "Vélez de Benaudalla",
    "province": "Ceuta",
    "lat": 36.83244,
    "lng": -3.51539
  },
  {
    "city": "Vélez-Blanco",
    "province": "Ceuta",
    "lat": 37.69178,
    "lng": -2.09587
  },
  {
    "city": "Belerda de Guadix",
    "province": "Ceuta",
    "lat": 37.37083,
    "lng": -3.21742
  },
  {
    "city": "Velefique",
    "province": "Ceuta",
    "lat": 37.19407,
    "lng": -2.40155
  },
  {
    "city": "Velada",
    "province": "54",
    "lat": 39.97687,
    "lng": -4.97641
  },
  {
    "city": "Vejer de la Frontera",
    "province": "Ceuta",
    "lat": 36.25213,
    "lng": -5.96717
  },
  {
    "city": "Veguillas",
    "province": "Ceuta",
    "lat": 38.3,
    "lng": -3.15
  },
  {
    "city": "Vega Vieja",
    "province": "54",
    "lat": 39.97225,
    "lng": -3.75568
  },
  {
    "city": "Vegas de Tegoyo",
    "province": "53",
    "lat": 28.97184,
    "lng": -13.68088
  },
  {
    "city": "Vegallera",
    "province": "54",
    "lat": 38.54543,
    "lng": -2.32456
  },
  {
    "city": "Vega de Torralba",
    "province": "Ceuta",
    "lat": 38.0013,
    "lng": -3.1672
  },
  {
    "city": "Vega de San Miguel",
    "province": "Ceuta",
    "lat": 37.93389,
    "lng": -3.77542
  },
  {
    "city": "Vega de San Mateo",
    "province": "53",
    "lat": 28.00892,
    "lng": -15.5333
  },
  {
    "city": "Vega de Río de Palmas",
    "province": "53",
    "lat": 28.39132,
    "lng": -14.08529
  },
  {
    "city": "Vega de los Hatos",
    "province": "Ceuta",
    "lat": 37.93333,
    "lng": -6.81667
  },
  {
    "city": "Vega de la Higuera",
    "province": "Ceuta",
    "lat": 37.73333,
    "lng": -3.08333
  },
  {
    "city": "Vega",
    "province": "Ceuta",
    "lat": 37.8,
    "lng": -3.13333
  },
  {
    "city": "Vara de Rey",
    "province": "54",
    "lat": 39.42595,
    "lng": -2.29404
  },
  {
    "city": "Vandelaras de Arriba",
    "province": "54",
    "lat": 38.93472,
    "lng": -2.20872
  },
  {
    "city": "Vandelaras de Abajo",
    "province": "54",
    "lat": 38.94614,
    "lng": -2.19938
  },
  {
    "city": "Vanacloig",
    "province": "60",
    "lat": 39.66667,
    "lng": -0.81667
  },
  {
    "city": "Valverdejo",
    "province": "54",
    "lat": 39.61667,
    "lng": -2.01667
  },
  {
    "city": "Valverde de Mérida",
    "province": "57",
    "lat": 38.91122,
    "lng": -6.21999
  },
  {
    "city": "Valverde de Llerena",
    "province": "57",
    "lat": 38.21667,
    "lng": -5.81667
  },
  {
    "city": "Valverde de Leganés",
    "province": "57",
    "lat": 38.67059,
    "lng": -6.98036
  },
  {
    "city": "Valverde del Camino",
    "province": "Ceuta",
    "lat": 37.57511,
    "lng": -6.75432
  },
  {
    "city": "Valverde de Júcar",
    "province": "54",
    "lat": 39.71866,
    "lng": -2.22135
  },
  {
    "city": "Valverde de Burguillos",
    "province": "57",
    "lat": 38.3271,
    "lng": -6.53648
  },
  {
    "city": "Valverde Bajo",
    "province": "60",
    "lat": 38.23333,
    "lng": -0.6
  },
  {
    "city": "Valverde Alto",
    "province": "60",
    "lat": 38.23777,
    "lng": -0.59313
  },
  {
    "city": "Valverde",
    "province": "54",
    "lat": 38.96417,
    "lng": -4.04093
  },
  {
    "city": "Valverde",
    "province": "53",
    "lat": 27.80628,
    "lng": -17.91578
  },
  {
    "city": "Valtajos",
    "province": "57",
    "lat": 40.0,
    "lng": -6.38333
  },
  {
    "city": "Valsequillo de Gran Canaria",
    "province": "53",
    "lat": 27.98562,
    "lng": -15.49725
  },
  {
    "city": "Valsequillo",
    "province": "Ceuta",
    "lat": 38.4,
    "lng": -5.35
  },
  {
    "city": "Válor",
    "province": "Ceuta",
    "lat": 36.99618,
    "lng": -3.08287
  },
  {
    "city": "Valmojado",
    "province": "57",
    "lat": 38.57684,
    "lng": -6.86232
  },
  {
    "city": "Vallongas",
    "province": "60",
    "lat": 38.31667,
    "lng": -0.68333
  },
  {
    "city": "Vallonga",
    "province": "60",
    "lat": 38.33333,
    "lng": -0.6
  },
  {
    "city": "Valleseco",
    "province": "53",
    "lat": 28.0433,
    "lng": -15.57623
  },
  {
    "city": "Valles de Ortega",
    "province": "53",
    "lat": 28.38863,
    "lng": -14.01179
  },
  {
    "city": "Valles de Carrasco",
    "province": "Ceuta",
    "lat": 38.03333,
    "lng": -6.76667
  },
  {
    "city": "Vallesa de Mandor",
    "province": "60",
    "lat": 39.55,
    "lng": -0.51667
  },
  {
    "city": "Vallés",
    "province": "60",
    "lat": 38.98518,
    "lng": -0.55696
  },
  {
    "city": "Vallequemado",
    "province": "Ceuta",
    "lat": 37.35909,
    "lng": -3.89664
  },
  {
    "city": "Vallejas",
    "province": "Ceuta",
    "lat": 36.69184,
    "lng": -5.77729
  },
  {
    "city": "Vallehermosa",
    "province": "53",
    "lat": 28.17944,
    "lng": -17.26664
  },
  {
    "city": "Valle Grande",
    "province": "53",
    "lat": 28.5133,
    "lng": -16.24335
  },
  {
    "city": "Valle de Santa Inés",
    "province": "53",
    "lat": 28.45968,
    "lng": -14.0398
  },
  {
    "city": "Valle de Santa Ana",
    "province": "57",
    "lat": 38.36637,
    "lng": -6.7886
  },
  {
    "city": "Valle de San Lorenzo",
    "province": "53",
    "lat": 28.08792,
    "lng": -16.65856
  },
  {
    "city": "Valle de Matamoros",
    "province": "57",
    "lat": 38.37889,
    "lng": -6.80371
  },
  {
    "city": "Valle de la Serena",
    "province": "57",
    "lat": 38.7101,
    "lng": -5.79847
  },
  {
    "city": "Valle del Álamo",
    "province": "Ceuta",
    "lat": 37.28333,
    "lng": -7.18333
  },
  {
    "city": "Valle de Jaqua",
    "province": "53",
    "lat": 28.50054,
    "lng": -16.20609
  },
  {
    "city": "Valleguerra",
    "province": "53",
    "lat": 28.51667,
    "lng": -16.38333
  },
  {
    "city": "Valle de Arriba",
    "province": "53",
    "lat": 28.30708,
    "lng": -16.80337
  },
  {
    "city": "Valle de Abdalagís",
    "province": "Ceuta",
    "lat": 36.93207,
    "lng": -4.68257
  },
  {
    "city": "Valle Crispin",
    "province": "53",
    "lat": 28.51568,
    "lng": -16.23758
  },
  {
    "city": "Valle Brosque",
    "province": "53",
    "lat": 28.51763,
    "lng": -16.22731
  },
  {
    "city": "Vallebrón",
    "province": "53",
    "lat": 28.56667,
    "lng": -13.91667
  },
  {
    "city": "la Vall d'Uixó",
    "province": "60",
    "lat": 39.82548,
    "lng": -0.23355
  },
  {
    "city": "Valldemossa",
    "province": "Baleares",
    "lat": 39.71042,
    "lng": 2.6223
  },
  {
    "city": "Vall de Ebo",
    "province": "60",
    "lat": 38.80561,
    "lng": -0.1589
  },
  {
    "city": "Vall de Almonacid",
    "province": "60",
    "lat": 39.9,
    "lng": -0.45
  },
  {
    "city": "Valladolises",
    "province": "Navarra",
    "lat": 37.77711,
    "lng": -1.12334
  },
  {
    "city": "Vallada",
    "province": "60",
    "lat": 38.89575,
    "lng": -0.69104
  },
  {
    "city": "Valhermoso de la Fuente",
    "province": "54",
    "lat": 39.56667,
    "lng": -2.01667
  },
  {
    "city": "Valeria",
    "province": "54",
    "lat": 39.78333,
    "lng": -2.15
  },
  {
    "city": "Valera de Arriba",
    "province": "54",
    "lat": 39.81667,
    "lng": -2.15
  },
  {
    "city": "Valera de Abajo",
    "province": "54",
    "lat": 39.76667,
    "lng": -2.15
  },
  {
    "city": "Valenzuela de Calatrava",
    "province": "54",
    "lat": 38.85254,
    "lng": -3.7721
  },
  {
    "city": "Valenzuela",
    "province": "Ceuta",
    "lat": 38.06258,
    "lng": -3.61037
  },
  {
    "city": "Valenzuela",
    "province": "Ceuta",
    "lat": 37.7756,
    "lng": -4.22038
  },
  {
    "city": "Valentín",
    "province": "Navarra",
    "lat": 38.18284,
    "lng": -1.72383
  },
  {
    "city": "Valencina de la Concepción",
    "province": "Ceuta",
    "lat": 37.41618,
    "lng": -6.07422
  },
  {
    "city": "Valencia del Ventoso",
    "province": "57",
    "lat": 38.26667,
    "lng": -6.46667
  },
  {
    "city": "Valencia del Mombuey",
    "province": "57",
    "lat": 38.24243,
    "lng": -7.11965
  },
  {
    "city": "Valencia de las Torres",
    "province": "57",
    "lat": 38.40518,
    "lng": -6.00403
  },
  {
    "city": "Valencia de Alcántara",
    "province": "57",
    "lat": 39.41148,
    "lng": -7.24435
  },
  {
    "city": "Valencia",
    "province": "60",
    "lat": 39.47391,
    "lng": -0.37966
  },
  {
    "city": "Valdezufre",
    "province": "Ceuta",
    "lat": 37.86667,
    "lng": -6.48333
  },
  {
    "city": "Valdeverdeja",
    "province": "54",
    "lat": 39.79635,
    "lng": -5.24544
  },
  {
    "city": "Valdetorres",
    "province": "57",
    "lat": 38.91542,
    "lng": -6.06765
  },
  {
    "city": "Valdespinar",
    "province": "57",
    "lat": 39.30624,
    "lng": -7.0405
  },
  {
    "city": "Valdés",
    "province": "Ceuta",
    "lat": 36.75835,
    "lng": -4.24235
  },
  {
    "city": "Valderrubio",
    "province": "Ceuta",
    "lat": 37.23378,
    "lng": -3.82005
  },
  {
    "city": "Valderas",
    "province": "Navarra",
    "lat": 37.81882,
    "lng": -1.02778
  },
  {
    "city": "Valdepeñas de Jaén",
    "province": "Ceuta",
    "lat": 37.58903,
    "lng": -3.8145
  },
  {
    "city": "Valdepeñas",
    "province": "54",
    "lat": 38.76211,
    "lng": -3.38483
  },
  {
    "city": "Valdemorales",
    "province": "57",
    "lat": 39.20588,
    "lng": -6.06622
  },
  {
    "city": "Valdemarín",
    "province": "Ceuta",
    "lat": 38.31421,
    "lng": -2.72655
  },
  {
    "city": "Valdemanzanos",
    "province": "Ceuta",
    "lat": 37.59547,
    "lng": -3.01457
  },
  {
    "city": "Valdemanco del Esteras",
    "province": "54",
    "lat": 38.93858,
    "lng": -4.8292
  },
  {
    "city": "Valdelentisco",
    "province": "Navarra",
    "lat": 37.63333,
    "lng": -1.16667
  },
  {
    "city": "Valdelarco",
    "province": "Ceuta",
    "lat": 37.94877,
    "lng": -6.68202
  },
  {
    "city": "Valdelamusa",
    "province": "Ceuta",
    "lat": 37.78486,
    "lng": -6.88008
  },
  {
    "city": "Valdelacasa de Tajo",
    "province": "57",
    "lat": 39.72588,
    "lng": -5.28296
  },
  {
    "city": "Valdelacanal",
    "province": "Ceuta",
    "lat": 37.93333,
    "lng": -6.76667
  },
  {
    "city": "Valdehúncar",
    "province": "57",
    "lat": 39.83659,
    "lng": -5.52307
  },
  {
    "city": "Valdehierro",
    "province": "54",
    "lat": 39.25823,
    "lng": -4.01159
  },
  {
    "city": "Valdehierro",
    "province": "57",
    "lat": 38.57715,
    "lng": -6.76849
  },
  {
    "city": "Valdeherrero",
    "province": "57",
    "lat": 39.10179,
    "lng": -6.61905
  },
  {
    "city": "Valdegranada",
    "province": "Ceuta",
    "lat": 37.4,
    "lng": -4.0
  },
  {
    "city": "Valdeganga de Cuenca",
    "province": "54",
    "lat": 39.93333,
    "lng": -2.18333
  },
  {
    "city": "Valdeganga",
    "province": "54",
    "lat": 39.13514,
    "lng": -1.67703
  },
  {
    "city": "Valdefuentes",
    "province": "57",
    "lat": 39.27433,
    "lng": -6.12183
  },
  {
    "city": "Valdeflores",
    "province": "Ceuta",
    "lat": 37.73076,
    "lng": -6.34873
  },
  {
    "city": "Valdecañas de Tajo",
    "province": "57",
    "lat": 39.75919,
    "lng": -5.61951
  },
  {
    "city": "Valdecaballeros",
    "province": "57",
    "lat": 39.24289,
    "lng": -5.19
  },
  {
    "city": "Valdeazores",
    "province": "54",
    "lat": 39.43192,
    "lng": -4.72457
  },
  {
    "city": "Valdeazogues",
    "province": "54",
    "lat": 38.69839,
    "lng": -4.42573
  },
  {
    "city": "Valdearenales",
    "province": "57",
    "lat": 38.80829,
    "lng": -6.05131
  },
  {
    "city": "Valconejo",
    "province": "Ceuta",
    "lat": 37.91667,
    "lng": -6.85
  },
  {
    "city": "Valchillón",
    "province": "Ceuta",
    "lat": 37.82043,
    "lng": -4.85115
  },
  {
    "city": "Vadohornillo",
    "province": "Ceuta",
    "lat": 37.63333,
    "lng": -3.91667
  },
  {
    "city": "Vadofresno",
    "province": "Ceuta",
    "lat": 37.28225,
    "lng": -4.42573
  },
  {
    "city": "Utrera",
    "province": "Ceuta",
    "lat": 37.18516,
    "lng": -5.78093
  },
  {
    "city": "Utiel",
    "province": "60",
    "lat": 39.56667,
    "lng": -1.2
  },
  {
    "city": "Usagre",
    "province": "57",
    "lat": 38.35,
    "lng": -6.16667
  },
  {
    "city": "Urrácal",
    "province": "Ceuta",
    "lat": 37.3974,
    "lng": -2.36485
  },
  {
    "city": "Urda",
    "province": "54",
    "lat": 39.41179,
    "lng": -3.71493
  },
  {
    "city": "Urcal",
    "province": "Ceuta",
    "lat": 37.46712,
    "lng": -1.92044
  },
  {
    "city": "Urbanización Rodazul",
    "province": "53",
    "lat": 28.40324,
    "lng": -16.32395
  },
  {
    "city": "Umbrías",
    "province": "Navarra",
    "lat": 37.52954,
    "lng": -1.44908
  },
  {
    "city": "Umbría de Matasanos",
    "province": "57",
    "lat": 40.00367,
    "lng": -6.11792
  },
  {
    "city": "Umbría Baja",
    "province": "60",
    "lat": 38.35059,
    "lng": -0.87087
  },
  {
    "city": "Umbría Alta",
    "province": "60",
    "lat": 38.34227,
    "lng": -0.91202
  },
  {
    "city": "Umbrete",
    "province": "Ceuta",
    "lat": 37.36881,
    "lng": -6.15847
  },
  {
    "city": "Uleila del Campo",
    "province": "Ceuta",
    "lat": 37.1846,
    "lng": -2.20491
  },
  {
    "city": "Ulea",
    "province": "Navarra",
    "lat": 38.14045,
    "lng": -1.33007
  },
  {
    "city": "Ugíjar",
    "province": "Ceuta",
    "lat": 36.96087,
    "lng": -3.05523
  },
  {
    "city": "Uga",
    "province": "53",
    "lat": 28.95032,
    "lng": -13.74449
  },
  {
    "city": "Uclés",
    "province": "54",
    "lat": 39.97938,
    "lng": -2.86143
  },
  {
    "city": "Uchell-Nia",
    "province": "60",
    "lat": 38.31667,
    "lng": -0.78333
  },
  {
    "city": "Uchea",
    "province": "54",
    "lat": 38.5,
    "lng": -1.6
  },
  {
    "city": "Ucenda",
    "province": "Navarra",
    "lat": 38.02235,
    "lng": -1.68353
  },
  {
    "city": "Ubrique",
    "province": "Ceuta",
    "lat": 36.67777,
    "lng": -5.446
  },
  {
    "city": "Úbeda",
    "province": "60",
    "lat": 38.44591,
    "lng": -0.98234
  },
  {
    "city": "Úbeda",
    "province": "Ceuta",
    "lat": 38.01328,
    "lng": -3.3705
  },
  {
    "city": "Turumbillo",
    "province": "Ceuta",
    "lat": 37.89434,
    "lng": -3.63123
  },
  {
    "city": "Turrillas",
    "province": "Ceuta",
    "lat": 37.02948,
    "lng": -2.26607
  },
  {
    "city": "Turre",
    "province": "Ceuta",
    "lat": 37.15224,
    "lng": -1.89497
  },
  {
    "city": "Turón",
    "province": "Ceuta",
    "lat": 36.86561,
    "lng": -3.05677
  },
  {
    "city": "Turleque",
    "province": "54",
    "lat": 39.60138,
    "lng": -3.61404
  },
  {
    "city": "Turís",
    "province": "60",
    "lat": 39.38333,
    "lng": -0.7
  },
  {
    "city": "Turbinto",
    "province": "Navarra",
    "lat": 37.53817,
    "lng": -1.74618
  },
  {
    "city": "Turballos",
    "province": "60",
    "lat": 38.80613,
    "lng": -0.44171
  },
  {
    "city": "Tujena",
    "province": "Ceuta",
    "lat": 37.474,
    "lng": -6.40703
  },
  {
    "city": "Tuineje",
    "province": "53",
    "lat": 28.32372,
    "lng": -14.04722
  },
  {
    "city": "Tuéjar",
    "province": "60",
    "lat": 39.76667,
    "lng": -1.03333
  },
  {
    "city": "Trujillo",
    "province": "57",
    "lat": 39.45786,
    "lng": -5.88203
  },
  {
    "city": "Trujillo",
    "province": "Ceuta",
    "lat": 37.30497,
    "lng": -5.79412
  },
  {
    "city": "Trujillanos",
    "province": "57",
    "lat": 38.95233,
    "lng": -6.25759
  },
  {
    "city": "Triquivijate",
    "province": "53",
    "lat": 28.42835,
    "lng": -13.97219
  },
  {
    "city": "Trigueros",
    "province": "Ceuta",
    "lat": 37.38606,
    "lng": -6.8268
  },
  {
    "city": "Tribaldos",
    "province": "54",
    "lat": 39.97264,
    "lng": -2.89809
  },
  {
    "city": "Triana",
    "province": "Ceuta",
    "lat": 36.8187,
    "lng": -4.16575
  },
  {
    "city": "Triana",
    "province": "53",
    "lat": 28.64725,
    "lng": -17.9109
  },
  {
    "city": "Trevélez",
    "province": "Ceuta",
    "lat": 37.00037,
    "lng": -3.26545
  },
  {
    "city": "Trevejos",
    "province": "53",
    "lat": 28.13928,
    "lng": -16.66154
  },
  {
    "city": "Tres Morales",
    "province": "Ceuta",
    "lat": 37.29485,
    "lng": -2.6256
  },
  {
    "city": "Tresjuncos",
    "province": "54",
    "lat": 39.70087,
    "lng": -2.75502
  },
  {
    "city": "Tresfuentes",
    "province": "60",
    "lat": 38.3716,
    "lng": -0.98916
  },
  {
    "city": "Tres Fuentes",
    "province": "Ceuta",
    "lat": 37.96807,
    "lng": -3.47631
  },
  {
    "city": "Trebujena",
    "province": "Ceuta",
    "lat": 36.87075,
    "lng": -6.17586
  },
  {
    "city": "Trebeluger",
    "province": "Baleares",
    "lat": 39.85179,
    "lng": 4.28085
  },
  {
    "city": "Trasmulas",
    "province": "Ceuta",
    "lat": 37.19827,
    "lng": -3.87131
  },
  {
    "city": "Trasmontaña",
    "province": "53",
    "lat": 28.13444,
    "lng": -15.51802
  },
  {
    "city": "Traslasierra",
    "province": "Ceuta",
    "lat": 37.69952,
    "lng": -6.6583
  },
  {
    "city": "Trasierra",
    "province": "57",
    "lat": 38.50751,
    "lng": -6.60212
  },
  {
    "city": "Trasierra",
    "province": "57",
    "lat": 38.18333,
    "lng": -6.0
  },
  {
    "city": "Trapiche",
    "province": "Ceuta",
    "lat": 36.8083,
    "lng": -4.12361
  },
  {
    "city": "Trapiche",
    "province": "53",
    "lat": 28.1352,
    "lng": -15.53887
  },
  {
    "city": "Trapajugar",
    "province": "Navarra",
    "lat": 37.56591,
    "lng": -0.91817
  },
  {
    "city": "Tózar",
    "province": "Ceuta",
    "lat": 37.36866,
    "lng": -3.77707
  },
  {
    "city": "Toya",
    "province": "Ceuta",
    "lat": 37.88022,
    "lng": -3.15924
  },
  {
    "city": "Tovilla",
    "province": "Ceuta",
    "lat": 38.17491,
    "lng": -2.63551
  },
  {
    "city": "Tous",
    "province": "60",
    "lat": 39.13951,
    "lng": -0.58777
  },
  {
    "city": "Toto",
    "province": "53",
    "lat": 28.35905,
    "lng": -14.08681
  },
  {
    "city": "Totanés",
    "province": "54",
    "lat": 39.71057,
    "lng": -4.22655
  },
  {
    "city": "Totana",
    "province": "Navarra",
    "lat": 37.7688,
    "lng": -1.50229
  },
  {
    "city": "Tostón",
    "province": "53",
    "lat": 28.68389,
    "lng": -14.00997
  },
  {
    "city": "Toscana Nueva",
    "province": "Ceuta",
    "lat": 37.87701,
    "lng": -2.37937
  },
  {
    "city": "Tosca de Ana María",
    "province": "53",
    "lat": 28.41667,
    "lng": -16.45
  },
  {
    "city": "Tosals",
    "province": "60",
    "lat": 38.81667,
    "lng": 0.03333
  },
  {
    "city": "Tosalnou",
    "province": "60",
    "lat": 39.04629,
    "lng": -0.46819
  },
  {
    "city": "Torviscón",
    "province": "Ceuta",
    "lat": 36.87937,
    "lng": -3.29826
  },
  {
    "city": "Tórtola",
    "province": "54",
    "lat": 39.91667,
    "lng": -2.13333
  },
  {
    "city": "Torrubia del Castillo",
    "province": "54",
    "lat": 39.65852,
    "lng": -2.31171
  },
  {
    "city": "Torrubia del Campo",
    "province": "54",
    "lat": 39.89749,
    "lng": -2.96133
  },
  {
    "city": "Torrubia",
    "province": "Ceuta",
    "lat": 38.02099,
    "lng": -3.66511
  },
  {
    "city": "Torrox",
    "province": "Ceuta",
    "lat": 36.75793,
    "lng": -3.95233
  },
  {
    "city": "Torrosella",
    "province": "60",
    "lat": 38.53753,
    "lng": -0.60696
  },
  {
    "city": "Torrijos",
    "province": "54",
    "lat": 39.98195,
    "lng": -4.28349
  },
  {
    "city": "Torrihuela",
    "province": "Ceuta",
    "lat": 38.14292,
    "lng": -3.35588
  },
  {
    "city": "Torrico",
    "province": "54",
    "lat": 39.82918,
    "lng": -5.22581
  },
  {
    "city": "Torrevieja",
    "province": "60",
    "lat": 37.97872,
    "lng": -0.68222
  },
  {
    "city": "Torre Vellisca",
    "province": "60",
    "lat": 38.79985,
    "lng": -0.777
  },
  {
    "city": "Torretes",
    "province": "60",
    "lat": 38.68066,
    "lng": -0.4299
  },
  {
    "city": "Torre-Tallada",
    "province": "60",
    "lat": 39.85,
    "lng": -0.9
  },
  {
    "city": "Torres-Torres",
    "province": "60",
    "lat": 39.73333,
    "lng": -0.35
  },
  {
    "city": "Torresolana",
    "province": "Ceuta",
    "lat": 37.01667,
    "lng": -4.01667
  },
  {
    "city": "Torres de Albanchez",
    "province": "Ceuta",
    "lat": 38.4155,
    "lng": -2.67785
  },
  {
    "city": "Torres",
    "province": "Ceuta",
    "lat": 37.78537,
    "lng": -3.50902
  },
  {
    "city": "Torrequemada",
    "province": "57",
    "lat": 39.36664,
    "lng": -6.22052
  },
  {
    "city": "Torrequebradilla",
    "province": "Ceuta",
    "lat": 37.91017,
    "lng": -3.6621
  },
  {
    "city": "Torreperogil",
    "province": "Ceuta",
    "lat": 38.0354,
    "lng": -3.28998
  },
  {
    "city": "Torre-Pacheco",
    "province": "Navarra",
    "lat": 37.74293,
    "lng": -0.95396
  },
  {
    "city": "Torreorgaz",
    "province": "57",
    "lat": 39.3831,
    "lng": -6.24941
  },
  {
    "city": "Torreón de Fique",
    "province": "Ceuta",
    "lat": 37.88703,
    "lng": -3.44202
  },
  {
    "city": "Torrenueva",
    "province": "54",
    "lat": 38.6396,
    "lng": -3.36259
  },
  {
    "city": "Torrenueva",
    "province": "Ceuta",
    "lat": 36.70396,
    "lng": -3.48971
  },
  {
    "city": "Torrent",
    "province": "60",
    "lat": 39.43705,
    "lng": -0.46546
  },
  {
    "city": "Torremolinos",
    "province": "Ceuta",
    "lat": 36.62035,
    "lng": -4.49976
  },
  {
    "city": "Torre-Mochuela",
    "province": "Navarra",
    "lat": 37.83153,
    "lng": -1.13979
  },
  {
    "city": "Torremocha",
    "province": "57",
    "lat": 39.34565,
    "lng": -6.17335
  },
  {
    "city": "Torremendo",
    "province": "60",
    "lat": 37.99151,
    "lng": -0.86531
  },
  {
    "city": "Torremegía",
    "province": "57",
    "lat": 38.79037,
    "lng": -6.3767
  },
  {
    "city": "Torremayor",
    "province": "57",
    "lat": 38.9014,
    "lng": -6.53858
  },
  {
    "city": "La Torre de les Maçanes",
    "province": "60",
    "lat": 38.60641,
    "lng": -0.41862
  },
  {
    "city": "Torre Lloris",
    "province": "60",
    "lat": 39.0299,
    "lng": -0.48934
  },
  {
    "city": "Torrella",
    "province": "60",
    "lat": 38.98446,
    "lng": -0.56727
  },
  {
    "city": "Torrelamata",
    "province": "60",
    "lat": 38.02828,
    "lng": -0.65506
  },
  {
    "city": "Torrejón el Rubio",
    "province": "57",
    "lat": 39.77068,
    "lng": -6.0126
  },
  {
    "city": "Torrejoncillo del Rey",
    "province": "54",
    "lat": 40.0084,
    "lng": -2.57107
  },
  {
    "city": "Torrejoncillo",
    "province": "57",
    "lat": 39.89675,
    "lng": -6.46712
  },
  {
    "city": "Torre-Guil",
    "province": "Navarra",
    "lat": 37.92726,
    "lng": -1.22836
  },
  {
    "city": "Torregorda",
    "province": "Ceuta",
    "lat": 36.46667,
    "lng": -6.25
  },
  {
    "city": "Torrefiel",
    "province": "60",
    "lat": 38.80347,
    "lng": -0.74725
  },
  {
    "city": "Torredonjimeno",
    "province": "Ceuta",
    "lat": 37.76748,
    "lng": -3.95776
  },
  {
    "city": "Torre de Torús",
    "province": "60",
    "lat": 38.80402,
    "lng": -0.62024
  },
  {
    "city": "Torre de Santa María",
    "province": "57",
    "lat": 39.25441,
    "lng": -6.1161
  },
  {
    "city": "Torre de Paniagua",
    "province": "57",
    "lat": 40.00147,
    "lng": -5.9437
  },
  {
    "city": "Torre de Miguel Sesmero",
    "province": "57",
    "lat": 38.61913,
    "lng": -6.7958
  },
  {
    "city": "Torre del Rico",
    "province": "Navarra",
    "lat": 38.36484,
    "lng": -1.11322
  },
  {
    "city": "Torre del Rame",
    "province": "Navarra",
    "lat": 37.73,
    "lng": -0.86468
  },
  {
    "city": "Torre del Mar",
    "province": "Ceuta",
    "lat": 36.742,
    "lng": -4.09291
  },
  {
    "city": "Torre del Campo",
    "province": "Ceuta",
    "lat": 37.77051,
    "lng": -3.89731
  },
  {
    "city": "Torre del Cabo",
    "province": "60",
    "lat": 39.18294,
    "lng": -0.22007
  },
  {
    "city": "Torre del Ángel",
    "province": "Navarra",
    "lat": 37.68757,
    "lng": -1.16537
  },
  {
    "city": "Torre de la Horadada",
    "province": "60",
    "lat": 37.8697,
    "lng": -0.7584
  },
  {
    "city": "Torre de Juan Abad",
    "province": "54",
    "lat": 38.58417,
    "lng": -3.05994
  },
  {
    "city": "Torre de Fuencubierta",
    "province": "Ceuta",
    "lat": 37.77857,
    "lng": -4.07378
  },
  {
    "city": "Torre de Baba",
    "province": "60",
    "lat": 39.58333,
    "lng": -0.53333
  },
  {
    "city": "Torrecuadros",
    "province": "Ceuta",
    "lat": 37.31774,
    "lng": -6.37864
  },
  {
    "city": "Torrecillas de la Tiesa",
    "province": "57",
    "lat": 39.56837,
    "lng": -5.74238
  },
  {
    "city": "Torrecilla de la Jara",
    "province": "54",
    "lat": 39.70425,
    "lng": -4.77186
  },
  {
    "city": "Torre Cerdá",
    "province": "60",
    "lat": 38.98432,
    "lng": -0.57595
  },
  {
    "city": "Torrecarrals",
    "province": "60",
    "lat": 38.85,
    "lng": 0.05
  },
  {
    "city": "Torre-Cardela",
    "province": "Ceuta",
    "lat": 37.50456,
    "lng": -3.35609
  },
  {
    "city": "Torrecampo",
    "province": "Ceuta",
    "lat": 38.46667,
    "lng": -4.66667
  },
  {
    "city": "Torreblascopedro",
    "province": "Ceuta",
    "lat": 37.9975,
    "lng": -3.6378
  },
  {
    "city": "Torreblanca de los Caños",
    "province": "Ceuta",
    "lat": 37.38524,
    "lng": -5.90491
  },
  {
    "city": "Torreblanca",
    "province": "Navarra",
    "lat": 37.63487,
    "lng": -0.88974
  },
  {
    "city": "Torrealvilla",
    "province": "Navarra",
    "lat": 37.76249,
    "lng": -1.70635
  },
  {
    "city": "Torre-Alta",
    "province": "Navarra",
    "lat": 38.03566,
    "lng": -1.21243
  },
  {
    "city": "Torre Alháquime",
    "province": "Ceuta",
    "lat": 36.91588,
    "lng": -5.23381
  },
  {
    "city": "Torreagüera",
    "province": "Navarra",
    "lat": 37.98074,
    "lng": -1.05297
  },
  {
    "city": "Torre-Agicampe",
    "province": "Ceuta",
    "lat": 37.20733,
    "lng": -4.09979
  },
  {
    "city": "Torralba de Oropesa",
    "province": "54",
    "lat": 39.93384,
    "lng": -5.15404
  },
  {
    "city": "Torralba del Pinar",
    "province": "60",
    "lat": 39.98333,
    "lng": -0.43333
  },
  {
    "city": "Torralba de Calatrava",
    "province": "54",
    "lat": 39.01785,
    "lng": -3.75105
  },
  {
    "city": "Torralba",
    "province": "Ceuta",
    "lat": 37.94854,
    "lng": -3.6217
  },
  {
    "city": "Tormos",
    "province": "60",
    "lat": 38.80143,
    "lng": -0.0716
  },
  {
    "city": "Toril",
    "province": "57",
    "lat": 39.89749,
    "lng": -5.7795
  },
  {
    "city": "Toril",
    "province": "Ceuta",
    "lat": 36.92499,
    "lng": -4.14459
  },
  {
    "city": "Torás",
    "province": "60",
    "lat": 39.91667,
    "lng": -0.68333
  },
  {
    "city": "Topo Negro",
    "province": "53",
    "lat": 28.32616,
    "lng": -16.40199
  },
  {
    "city": "Topares",
    "province": "Ceuta",
    "lat": 37.86224,
    "lng": -2.22849
  },
  {
    "city": "Tonaso",
    "province": "53",
    "lat": 28.31595,
    "lng": -16.40347
  },
  {
    "city": "Tomelloso",
    "province": "54",
    "lat": 39.15759,
    "lng": -3.02156
  },
  {
    "city": "Tomares",
    "province": "Ceuta",
    "lat": 37.37281,
    "lng": -6.04589
  },
  {
    "city": "Tolox",
    "province": "Ceuta",
    "lat": 36.68721,
    "lng": -4.90511
  },
  {
    "city": "Tolosa",
    "province": "54",
    "lat": 39.2,
    "lng": -1.36667
  },
  {
    "city": "Tolomó",
    "province": "60",
    "lat": 38.31667,
    "lng": -0.8
  },
  {
    "city": "Tollos",
    "province": "60",
    "lat": 38.75629,
    "lng": -0.27466
  },
  {
    "city": "Toledo",
    "province": "54",
    "lat": 39.8581,
    "lng": -4.02263
  },
  {
    "city": "Todoque",
    "province": "53",
    "lat": 28.60974,
    "lng": -17.90242
  },
  {
    "city": "Tocón",
    "province": "Ceuta",
    "lat": 37.23832,
    "lng": -3.96649
  },
  {
    "city": "Tocina",
    "province": "Ceuta",
    "lat": 37.60904,
    "lng": -5.73403
  },
  {
    "city": "Tobos",
    "province": "Ceuta",
    "lat": 38.15,
    "lng": -2.48333
  },
  {
    "city": "Tobazo",
    "province": "Ceuta",
    "lat": 37.5522,
    "lng": -4.02735
  },
  {
    "city": "Tobaruela",
    "province": "Ceuta",
    "lat": 38.06846,
    "lng": -3.67399
  },
  {
    "city": "Tobarra",
    "province": "54",
    "lat": 38.59213,
    "lng": -1.69191
  },
  {
    "city": "Tobar",
    "province": "54",
    "lat": 38.32617,
    "lng": -2.20942
  },
  {
    "city": "Titaguas",
    "province": "60",
    "lat": 39.86667,
    "lng": -1.08333
  },
  {
    "city": "Tiscar",
    "province": "Ceuta",
    "lat": 37.76865,
    "lng": -3.02228
  },
  {
    "city": "Tiscamanita",
    "province": "53",
    "lat": 28.35231,
    "lng": -14.04024
  },
  {
    "city": "Tirteafuera",
    "province": "54",
    "lat": 38.77462,
    "lng": -4.25125
  },
  {
    "city": "Casas deTirma",
    "province": "53",
    "lat": 28.03062,
    "lng": -15.72401
  },
  {
    "city": "Tiriez",
    "province": "54",
    "lat": 38.89641,
    "lng": -2.26656
  },
  {
    "city": "Tiñosa Baja",
    "province": "Navarra",
    "lat": 37.96623,
    "lng": -1.0803
  },
  {
    "city": "Tiñosa Alta",
    "province": "Navarra",
    "lat": 37.96996,
    "lng": -1.07938
  },
  {
    "city": "Tiñor",
    "province": "53",
    "lat": 27.78912,
    "lng": -17.932
  },
  {
    "city": "Tinguatón",
    "province": "53",
    "lat": 29.04472,
    "lng": -13.69572
  },
  {
    "city": "Tindaya",
    "province": "53",
    "lat": 28.58388,
    "lng": -13.98082
  },
  {
    "city": "Tindavar",
    "province": "54",
    "lat": 38.3554,
    "lng": -2.26938
  },
  {
    "city": "Tinajo",
    "province": "53",
    "lat": 29.06326,
    "lng": -13.67647
  },
  {
    "city": "Tinajeros",
    "province": "54",
    "lat": 39.06883,
    "lng": -1.74339
  },
  {
    "city": "Tinadas",
    "province": "Ceuta",
    "lat": 37.04744,
    "lng": -2.31113
  },
  {
    "city": "Tímar",
    "province": "Ceuta",
    "lat": 36.94447,
    "lng": -3.21153
  },
  {
    "city": "Timagada",
    "province": "53",
    "lat": 27.97151,
    "lng": -15.62685
  },
  {
    "city": "Tíjola",
    "province": "Ceuta",
    "lat": 37.34606,
    "lng": -2.43326
  },
  {
    "city": "Tijoco de Arriba",
    "province": "53",
    "lat": 28.16667,
    "lng": -16.71667
  },
  {
    "city": "Tijoco de Abajo",
    "province": "53",
    "lat": 28.15,
    "lng": -16.75
  },
  {
    "city": "Tijarafe",
    "province": "53",
    "lat": 28.7,
    "lng": -17.95
  },
  {
    "city": "Tiguerorte",
    "province": "53",
    "lat": 28.55865,
    "lng": -17.79289
  },
  {
    "city": "Tigalate",
    "province": "53",
    "lat": 28.55333,
    "lng": -17.80277
  },
  {
    "city": "Tigaiga",
    "province": "53",
    "lat": 28.36667,
    "lng": -16.56667
  },
  {
    "city": "Tigaday",
    "province": "53",
    "lat": 27.75191,
    "lng": -18.0196
  },
  {
    "city": "Tierras Nuevas",
    "province": "Ceuta",
    "lat": 36.97236,
    "lng": -5.60216
  },
  {
    "city": "Tiena la Baja",
    "province": "Ceuta",
    "lat": 37.31902,
    "lng": -3.78444
  },
  {
    "city": "Tices",
    "province": "Ceuta",
    "lat": 37.06207,
    "lng": -2.73482
  },
  {
    "city": "Tibi",
    "province": "60",
    "lat": 38.53072,
    "lng": -0.57776
  },
  {
    "city": "Tías",
    "province": "53",
    "lat": 28.96108,
    "lng": -13.64502
  },
  {
    "city": "Tiagua",
    "province": "53",
    "lat": 29.0527,
    "lng": -13.63069
  },
  {
    "city": "Tharsis",
    "province": "Ceuta",
    "lat": 37.6046,
    "lng": -7.11826
  },
  {
    "city": "Teulada",
    "province": "60",
    "lat": 38.7294,
    "lng": 0.10383
  },
  {
    "city": "Tetir",
    "province": "53",
    "lat": 28.51667,
    "lng": -13.93333
  },
  {
    "city": "Tesejerague",
    "province": "53",
    "lat": 28.27804,
    "lng": -14.11354
  },
  {
    "city": "Teseguite",
    "province": "53",
    "lat": 29.05497,
    "lng": -13.52937
  },
  {
    "city": "Tesbabo",
    "province": "53",
    "lat": 27.81498,
    "lng": -17.95422
  },
  {
    "city": "Terrinches",
    "province": "54",
    "lat": 38.61057,
    "lng": -2.84215
  },
  {
    "city": "Terre",
    "province": "Ceuta",
    "lat": 37.45081,
    "lng": -3.50796
  },
  {
    "city": "Terrateig",
    "province": "60",
    "lat": 38.89453,
    "lng": -0.31993
  },
  {
    "city": "Terque",
    "province": "Ceuta",
    "lat": 36.98393,
    "lng": -2.59679
  },
  {
    "city": "Teror",
    "province": "53",
    "lat": 28.06062,
    "lng": -15.54909
  },
  {
    "city": "Término de Arriba",
    "province": "Navarra",
    "lat": 38.53333,
    "lng": -1.4
  },
  {
    "city": "Teresa de Cofrentes",
    "province": "60",
    "lat": 39.10563,
    "lng": -1.05105
  },
  {
    "city": "Tenteniguada",
    "province": "53",
    "lat": 27.98208,
    "lng": -15.52488
  },
  {
    "city": "Tenoya",
    "province": "53",
    "lat": 28.1134,
    "lng": -15.49424
  },
  {
    "city": "Teno",
    "province": "53",
    "lat": 28.33333,
    "lng": -16.85
  },
  {
    "city": "Tenagua",
    "province": "53",
    "lat": 28.71815,
    "lng": -17.74875
  },
  {
    "city": "Temisas",
    "province": "53",
    "lat": 27.90937,
    "lng": -15.50733
  },
  {
    "city": "Tembleque",
    "province": "54",
    "lat": 39.69541,
    "lng": -3.50429
  },
  {
    "city": "Telde",
    "province": "53",
    "lat": 27.99243,
    "lng": -15.41915
  },
  {
    "city": "Tejina",
    "province": "53",
    "lat": 28.53478,
    "lng": -16.35873
  },
  {
    "city": "Tejeda",
    "province": "53",
    "lat": 27.99508,
    "lng": -15.61543
  },
  {
    "city": "Tejares",
    "province": "60",
    "lat": 38.91667,
    "lng": -0.11667
  },
  {
    "city": "Teja",
    "province": "Ceuta",
    "lat": 37.67369,
    "lng": -2.8076
  },
  {
    "city": "Teix",
    "province": "60",
    "lat": 38.60891,
    "lng": -0.37297
  },
  {
    "city": "Teguitar",
    "province": "53",
    "lat": 28.27272,
    "lng": -13.98939
  },
  {
    "city": "Teguise",
    "province": "53",
    "lat": 29.06049,
    "lng": -13.56397
  },
  {
    "city": "Tegueste",
    "province": "53",
    "lat": 28.52236,
    "lng": -16.34074
  },
  {
    "city": "Tefía",
    "province": "53",
    "lat": 28.5245,
    "lng": -13.99148
  },
  {
    "city": "Tébar",
    "province": "54",
    "lat": 39.5,
    "lng": -2.16667
  },
  {
    "city": "Teba",
    "province": "Ceuta",
    "lat": 36.98358,
    "lng": -4.91913
  },
  {
    "city": "Tazona",
    "province": "54",
    "lat": 38.30496,
    "lng": -1.90927
  },
  {
    "city": "Tazacorte",
    "province": "53",
    "lat": 28.64186,
    "lng": -17.93394
  },
  {
    "city": "Taucho",
    "province": "53",
    "lat": 28.15,
    "lng": -16.71667
  },
  {
    "city": "Tasartico",
    "province": "53",
    "lat": 27.92678,
    "lng": -15.8016
  },
  {
    "city": "Tasarte",
    "province": "53",
    "lat": 27.92556,
    "lng": -15.75989
  },
  {
    "city": "Tartamudo",
    "province": "Navarra",
    "lat": 38.06581,
    "lng": -2.1435
  },
  {
    "city": "Tarragoya",
    "province": "Navarra",
    "lat": 37.96184,
    "lng": -2.03366
  },
  {
    "city": "Tarifa",
    "province": "Ceuta",
    "lat": 37.58684,
    "lng": -2.41866
  },
  {
    "city": "Tarifa",
    "province": "Ceuta",
    "lat": 36.01393,
    "lng": -5.60695
  },
  {
    "city": "Tárbena",
    "province": "60",
    "lat": 38.69413,
    "lng": -0.10141
  },
  {
    "city": "Tarazona de la Mancha",
    "province": "54",
    "lat": 39.25,
    "lng": -1.91667
  },
  {
    "city": "Taramay",
    "province": "Ceuta",
    "lat": 36.75645,
    "lng": -3.67683
  },
  {
    "city": "Tarajalejo",
    "province": "53",
    "lat": 28.19127,
    "lng": -14.1184
  },
  {
    "city": "Tarahal",
    "province": "Ceuta",
    "lat": 37.60448,
    "lng": -3.07235
  },
  {
    "city": "Tao",
    "province": "53",
    "lat": 29.03866,
    "lng": -13.62525
  },
  {
    "city": "Tanque",
    "province": "53",
    "lat": 28.35584,
    "lng": -16.77986
  },
  {
    "city": "Tángel",
    "province": "60",
    "lat": 38.40791,
    "lng": -0.47195
  },
  {
    "city": "Tamurejo",
    "province": "57",
    "lat": 38.98333,
    "lng": -4.93333
  },
  {
    "city": "Tamujoso",
    "province": "Ceuta",
    "lat": 37.72644,
    "lng": -6.90624
  },
  {
    "city": "Tamojares",
    "province": "Ceuta",
    "lat": 37.59118,
    "lng": -3.00662
  },
  {
    "city": "Tamayo",
    "province": "54",
    "lat": 39.36667,
    "lng": -1.43333
  },
  {
    "city": "Tamaraceite",
    "province": "53",
    "lat": 28.09894,
    "lng": -15.47218
  },
  {
    "city": "Tamaimo",
    "province": "53",
    "lat": 28.26882,
    "lng": -16.82345
  },
  {
    "city": "Tamaide",
    "province": "53",
    "lat": 28.4,
    "lng": -16.48333
  },
  {
    "city": "Tamaide",
    "province": "53",
    "lat": 28.1,
    "lng": -16.6
  },
  {
    "city": "Tamaduste",
    "province": "53",
    "lat": 27.82227,
    "lng": -17.8947
  },
  {
    "city": "Táliga",
    "province": "57",
    "lat": 38.52861,
    "lng": -7.01713
  },
  {
    "city": "Tales",
    "province": "60",
    "lat": 39.94844,
    "lng": -0.30719
  },
  {
    "city": "Talayuelas",
    "province": "54",
    "lat": 39.85,
    "lng": -1.28333
  },
  {
    "city": "Talayuela",
    "province": "57",
    "lat": 39.98701,
    "lng": -5.60982
  },
  {
    "city": "Talavera la Vieja",
    "province": "57",
    "lat": 39.8,
    "lng": -5.4
  },
  {
    "city": "Talavera La Real",
    "province": "57",
    "lat": 38.87794,
    "lng": -6.76856
  },
  {
    "city": "Talavera de la Reina",
    "province": "54",
    "lat": 39.96348,
    "lng": -4.83076
  },
  {
    "city": "Talave",
    "province": "54",
    "lat": 38.51667,
    "lng": -1.85
  },
  {
    "city": "Talaván",
    "province": "57",
    "lat": 39.71715,
    "lng": -6.28146
  },
  {
    "city": "Talarrubias",
    "province": "57",
    "lat": 39.03697,
    "lng": -5.23423
  },
  {
    "city": "Talará",
    "province": "Ceuta",
    "lat": 36.94783,
    "lng": -3.55064
  },
  {
    "city": "Tajuya",
    "province": "53",
    "lat": 28.63124,
    "lng": -17.90369
  },
  {
    "city": "Tajarja",
    "province": "Ceuta",
    "lat": 37.11724,
    "lng": -3.87785
  },
  {
    "city": "Tajace de Abajo",
    "province": "53",
    "lat": 27.74466,
    "lng": -17.95342
  },
  {
    "city": "Taidía",
    "province": "53",
    "lat": 27.92697,
    "lng": -15.55235
  },
  {
    "city": "Taibique",
    "province": "53",
    "lat": 27.70348,
    "lng": -17.98127
  },
  {
    "city": "Tahodio",
    "province": "53",
    "lat": 28.48333,
    "lng": -16.25
  },
  {
    "city": "Tahiche",
    "province": "53",
    "lat": 29.01912,
    "lng": -13.54451
  },
  {
    "city": "Tahal",
    "province": "Ceuta",
    "lat": 37.22797,
    "lng": -2.2847
  },
  {
    "city": "Taguluche",
    "province": "53",
    "lat": 28.13529,
    "lng": -17.33066
  },
  {
    "city": "Tagarina",
    "province": "60",
    "lat": 38.63289,
    "lng": -0.2771
  },
  {
    "city": "Taganana",
    "province": "53",
    "lat": 28.56667,
    "lng": -16.21667
  },
  {
    "city": "Tafira Baja",
    "province": "53",
    "lat": 28.07115,
    "lng": -15.44952
  },
  {
    "city": "Tafira",
    "province": "53",
    "lat": 28.04716,
    "lng": -15.46629
  },
  {
    "city": "Tacoronte",
    "province": "53",
    "lat": 28.47688,
    "lng": -16.41016
  },
  {
    "city": "Taco",
    "province": "53",
    "lat": 28.44637,
    "lng": -16.29572
  },
  {
    "city": "Taco",
    "province": "53",
    "lat": 28.34942,
    "lng": -16.82238
  },
  {
    "city": "Taborno",
    "province": "53",
    "lat": 28.55,
    "lng": -16.25
  },
  {
    "city": "Tablate",
    "province": "Ceuta",
    "lat": 36.92087,
    "lng": -3.52507
  },
  {
    "city": "Tabladilla",
    "province": "Ceuta",
    "lat": 37.56513,
    "lng": -6.46501
  },
  {
    "city": "Tavernes de la Valldigna",
    "province": "60",
    "lat": 39.07195,
    "lng": -0.26623
  },
  {
    "city": "Tavernes Blanques",
    "province": "60",
    "lat": 39.5,
    "lng": -0.36667
  },
  {
    "city": "Tabernas",
    "province": "Ceuta",
    "lat": 37.04992,
    "lng": -2.39084
  },
  {
    "city": "Tabayesco",
    "province": "53",
    "lat": 29.12736,
    "lng": -13.47949
  },
  {
    "city": "Tabaqueros",
    "province": "54",
    "lat": 39.35,
    "lng": -1.48333
  },
  {
    "city": "Suspiro del Moro",
    "province": "Ceuta",
    "lat": 37.07983,
    "lng": -3.65295
  },
  {
    "city": "Sumacàrcer",
    "province": "60",
    "lat": 39.1,
    "lng": -0.63333
  },
  {
    "city": "Suflí",
    "province": "Ceuta",
    "lat": 37.33866,
    "lng": -2.38817
  },
  {
    "city": "Sueca",
    "province": "60",
    "lat": 39.2026,
    "lng": -0.31114
  },
  {
    "city": "Sucina",
    "province": "Navarra",
    "lat": 37.89064,
    "lng": -0.94122
  },
  {
    "city": "Sotuélamos",
    "province": "54",
    "lat": 39.04018,
    "lng": -2.57439
  },
  {
    "city": "Sotos Nuevos",
    "province": "Navarra",
    "lat": 37.76667,
    "lng": -0.96667
  },
  {
    "city": "Sotogordo",
    "province": "Ceuta",
    "lat": 37.36227,
    "lng": -4.75395
  },
  {
    "city": "Sotiel Coronada",
    "province": "Ceuta",
    "lat": 37.60261,
    "lng": -6.85064
  },
  {
    "city": "Sot de Ferrer",
    "province": "60",
    "lat": 39.8,
    "lng": -0.4
  },
  {
    "city": "Sot de Chera",
    "province": "60",
    "lat": 39.63333,
    "lng": -0.9
  },
  {
    "city": "Sot",
    "province": "60",
    "lat": 38.56193,
    "lng": -0.50259
  },
  {
    "city": "Sorvilán",
    "province": "Ceuta",
    "lat": 36.79505,
    "lng": -3.26769
  },
  {
    "city": "Sorió",
    "province": "60",
    "lat": 39.0,
    "lng": -0.51667
  },
  {
    "city": "Sorihuela del Guadalimar",
    "province": "Ceuta",
    "lat": 38.24062,
    "lng": -3.0536
  },
  {
    "city": "Soria",
    "province": "53",
    "lat": 27.9066,
    "lng": -15.66942
  },
  {
    "city": "Sorbas",
    "province": "Ceuta",
    "lat": 37.09761,
    "lng": -2.12349
  },
  {
    "city": "Soportújar",
    "province": "Ceuta",
    "lat": 36.92863,
    "lng": -3.40542
  },
  {
    "city": "Sopalmo",
    "province": "Ceuta",
    "lat": 37.0571,
    "lng": -1.88192
  },
  {
    "city": "Soo",
    "province": "53",
    "lat": 29.09915,
    "lng": -13.62231
  },
  {
    "city": "Son Verí Nou",
    "province": "Baleares",
    "lat": 39.49192,
    "lng": 2.74105
  },
  {
    "city": "Son Servera",
    "province": "Baleares",
    "lat": 39.62073,
    "lng": 3.36008
  },
  {
    "city": "Sonseca",
    "province": "54",
    "lat": 39.67747,
    "lng": -3.97448
  },
  {
    "city": "Son Sardina",
    "province": "Baleares",
    "lat": 39.62035,
    "lng": 2.65708
  },
  {
    "city": "Son Rapinya",
    "province": "Baleares",
    "lat": 39.58932,
    "lng": 2.61899
  },
  {
    "city": "Son Espanyol",
    "province": "Baleares",
    "lat": 39.62951,
    "lng": 2.63938
  },
  {
    "city": "Soneja",
    "province": "60",
    "lat": 39.81667,
    "lng": -0.41667
  },
  {
    "city": "Son Curt",
    "province": "Baleares",
    "lat": 39.58333,
    "lng": 2.41667
  },
  {
    "city": "Son Carrió",
    "province": "Baleares",
    "lat": 39.58856,
    "lng": 3.32048
  },
  {
    "city": "Son Anglada",
    "province": "Baleares",
    "lat": 39.6,
    "lng": 2.61667
  },
  {
    "city": "Somontín",
    "province": "Ceuta",
    "lat": 37.39176,
    "lng": -2.38828
  },
  {
    "city": "Sombrera",
    "province": "53",
    "lat": 28.21667,
    "lng": -16.45
  },
  {
    "city": "Sóller",
    "province": "Baleares",
    "lat": 39.76623,
    "lng": 2.71521
  },
  {
    "city": "Sollana",
    "province": "60",
    "lat": 39.2783,
    "lng": -0.38238
  },
  {
    "city": "Solera del Gabaldón",
    "province": "54",
    "lat": 39.75,
    "lng": -1.96667
  },
  {
    "city": "Solera",
    "province": "Ceuta",
    "lat": 37.68341,
    "lng": -3.36988
  },
  {
    "city": "Soledad",
    "province": "57",
    "lat": 38.65,
    "lng": -6.46667
  },
  {
    "city": "Sol del Campo",
    "province": "60",
    "lat": 38.42574,
    "lng": -0.65703
  },
  {
    "city": "Solanilla del Tamaral",
    "province": "54",
    "lat": 38.43322,
    "lng": -3.96207
  },
  {
    "city": "Solanilla",
    "province": "54",
    "lat": 38.69168,
    "lng": -2.50307
  },
  {
    "city": "Solanas del Valle",
    "province": "Ceuta",
    "lat": 37.96667,
    "lng": -5.9
  },
  {
    "city": "Solana de Padilla",
    "province": "Ceuta",
    "lat": 38.14845,
    "lng": -2.79485
  },
  {
    "city": "Solana del Pino",
    "province": "54",
    "lat": 38.4672,
    "lng": -4.0752
  },
  {
    "city": "Solana de los Barros",
    "province": "57",
    "lat": 38.72527,
    "lng": -6.53899
  },
  {
    "city": "Solana Baja",
    "province": "60",
    "lat": 38.35476,
    "lng": -0.94568
  },
  {
    "city": "Solana Alta",
    "province": "60",
    "lat": 38.34929,
    "lng": -0.95727
  },
  {
    "city": "Solana",
    "province": "57",
    "lat": 39.47969,
    "lng": -5.47845
  },
  {
    "city": "Socuéllamos",
    "province": "54",
    "lat": 39.28581,
    "lng": -2.79205
  },
  {
    "city": "Socovos",
    "province": "54",
    "lat": 38.33232,
    "lng": -1.98485
  },
  {
    "city": "Sobrante Berrocal",
    "province": "57",
    "lat": 38.89674,
    "lng": -5.72567
  },
  {
    "city": "Sobradillo",
    "province": "53",
    "lat": 28.43936,
    "lng": -16.32285
  },
  {
    "city": "Siscar",
    "province": "Navarra",
    "lat": 38.06813,
    "lng": -1.02654
  },
  {
    "city": "Sisante",
    "province": "54",
    "lat": 39.40849,
    "lng": -2.20173
  },
  {
    "city": "Siruela",
    "province": "57",
    "lat": 38.97718,
    "lng": -5.04969
  },
  {
    "city": "Singla",
    "province": "Navarra",
    "lat": 38.02152,
    "lng": -1.9441
  },
  {
    "city": "Sineu",
    "province": "Baleares",
    "lat": 39.64254,
    "lng": 3.01034
  },
  {
    "city": "Sinarcas",
    "province": "60",
    "lat": 39.73333,
    "lng": -1.23333
  },
  {
    "city": "Simat de la Valldigna",
    "province": "60",
    "lat": 39.03333,
    "lng": -0.31667
  },
  {
    "city": "Sillero",
    "province": "Ceuta",
    "lat": 38.09886,
    "lng": -3.02485
  },
  {
    "city": "Sillar Baja",
    "province": "Ceuta",
    "lat": 37.34542,
    "lng": -3.36282
  },
  {
    "city": "Sillar Alta",
    "province": "Ceuta",
    "lat": 37.34048,
    "lng": -3.41063
  },
  {
    "city": "Silla",
    "province": "60",
    "lat": 39.36257,
    "lng": -0.41169
  },
  {
    "city": "Silim",
    "province": "60",
    "lat": 38.49764,
    "lng": -0.54053
  },
  {
    "city": "Silillos",
    "province": "Ceuta",
    "lat": 37.69444,
    "lng": -5.12791
  },
  {
    "city": "Siles",
    "province": "Ceuta",
    "lat": 38.38983,
    "lng": -2.5819
  },
  {
    "city": "Sileras",
    "province": "Ceuta",
    "lat": 37.46287,
    "lng": -4.06511
  },
  {
    "city": "Siete Aguas",
    "province": "60",
    "lat": 39.46667,
    "lng": -0.91667
  },
  {
    "city": "Sierro",
    "province": "Ceuta",
    "lat": 37.32237,
    "lng": -2.39844
  },
  {
    "city": "Sierrezuela",
    "province": "Ceuta",
    "lat": 37.54309,
    "lng": -3.9111
  },
  {
    "city": "Sierra Gorda",
    "province": "57",
    "lat": 38.42669,
    "lng": -6.53784
  },
  {
    "city": "Sierra de Yeguas",
    "province": "Ceuta",
    "lat": 37.1242,
    "lng": -4.86773
  },
  {
    "city": "Sierra de Fuentes",
    "province": "57",
    "lat": 39.43997,
    "lng": -6.27242
  },
  {
    "city": "Sierra Alhamilla",
    "province": "Ceuta",
    "lat": 36.96667,
    "lng": -2.4
  },
  {
    "city": "Sierra Ahillos",
    "province": "Ceuta",
    "lat": 37.6137,
    "lng": -4.02808
  },
  {
    "city": "Sierra",
    "province": "54",
    "lat": 38.56068,
    "lng": -1.65877
  },
  {
    "city": "Sierra",
    "province": "Ceuta",
    "lat": 37.04407,
    "lng": -3.56031
  },
  {
    "city": "Sevilleja de la Jara",
    "province": "54",
    "lat": 39.57488,
    "lng": -4.96387
  },
  {
    "city": "Sevilla",
    "province": "Ceuta",
    "lat": 37.38283,
    "lng": -5.97317
  },
  {
    "city": "Setla",
    "province": "60",
    "lat": 38.85077,
    "lng": 0.01746
  },
  {
    "city": "Setenil de las Bodegas",
    "province": "Ceuta",
    "lat": 36.86397,
    "lng": -5.18177
  },
  {
    "city": "Ses Salines",
    "province": "Baleares",
    "lat": 39.33831,
    "lng": 3.05274
  },
  {
    "city": "Serval",
    "province": "Ceuta",
    "lat": 37.3622,
    "lng": -4.12503
  },
  {
    "city": "Serrejón",
    "province": "57",
    "lat": 39.81735,
    "lng": -5.80263
  },
  {
    "city": "Serrato",
    "province": "Ceuta",
    "lat": 36.88541,
    "lng": -4.98147
  },
  {
    "city": "Serratella",
    "province": "60",
    "lat": 39.07515,
    "lng": -0.44516
  },
  {
    "city": "Serratella",
    "province": "60",
    "lat": 38.57361,
    "lng": -0.43424
  },
  {
    "city": "Serrallonga",
    "province": "60",
    "lat": 38.7,
    "lng": 0.05
  },
  {
    "city": "Serradilla",
    "province": "57",
    "lat": 39.8292,
    "lng": -6.14034
  },
  {
    "city": "Serradiel",
    "province": "54",
    "lat": 39.25,
    "lng": -1.46667
  },
  {
    "city": "Serra",
    "province": "60",
    "lat": 39.68333,
    "lng": -0.43333
  },
  {
    "city": "Serpos",
    "province": "Ceuta",
    "lat": 37.81195,
    "lng": -6.79419
  },
  {
    "city": "Serón",
    "province": "Ceuta",
    "lat": 37.34485,
    "lng": -2.50913
  },
  {
    "city": "Serena",
    "province": "Ceuta",
    "lat": 37.17494,
    "lng": -1.98841
  },
  {
    "city": "Senija",
    "province": "60",
    "lat": 38.72804,
    "lng": 0.04176
  },
  {
    "city": "Senyera",
    "province": "60",
    "lat": 39.06667,
    "lng": -0.5
  },
  {
    "city": "Sempere",
    "province": "60",
    "lat": 38.92014,
    "lng": -0.4814
  },
  {
    "city": "Selva",
    "province": "Baleares",
    "lat": 39.75504,
    "lng": 2.90069
  },
  {
    "city": "Sellent",
    "province": "60",
    "lat": 39.03221,
    "lng": -0.58784
  },
  {
    "city": "Sella",
    "province": "60",
    "lat": 38.60926,
    "lng": -0.27305
  },
  {
    "city": "Seima",
    "province": "53",
    "lat": 28.06667,
    "lng": -17.15
  },
  {
    "city": "Segura de León",
    "province": "57",
    "lat": 38.11667,
    "lng": -6.51667
  },
  {
    "city": "Segura de la Sierra",
    "province": "Ceuta",
    "lat": 38.29777,
    "lng": -2.65229
  },
  {
    "city": "Segorbe",
    "province": "60",
    "lat": 39.85,
    "lng": -0.48333
  },
  {
    "city": "Sege",
    "province": "54",
    "lat": 38.29583,
    "lng": -2.29466
  },
  {
    "city": "Segart",
    "province": "60",
    "lat": 39.68333,
    "lng": -0.36667
  },
  {
    "city": "Sedaví",
    "province": "60",
    "lat": 39.43333,
    "lng": -0.38333
  },
  {
    "city": "Seco de Lucena",
    "province": "Ceuta",
    "lat": 37.08089,
    "lng": -3.98493
  },
  {
    "city": "Secano",
    "province": "Ceuta",
    "lat": 36.9,
    "lng": -3.48333
  },
  {
    "city": "Sayalonga",
    "province": "Ceuta",
    "lat": 36.79819,
    "lng": -4.01325
  },
  {
    "city": "Sax",
    "province": "60",
    "lat": 38.53729,
    "lng": -0.81779
  },
  {
    "city": "Sauzal",
    "province": "53",
    "lat": 28.46667,
    "lng": -16.41667
  },
  {
    "city": "Saucedilla",
    "province": "57",
    "lat": 39.85284,
    "lng": -5.67781
  },
  {
    "city": "s'Arracó",
    "province": "Baleares",
    "lat": 39.57817,
    "lng": 2.39266
  },
  {
    "city": "Sardina",
    "province": "53",
    "lat": 28.15094,
    "lng": -15.69569
  },
  {
    "city": "Sardina",
    "province": "53",
    "lat": 27.84828,
    "lng": -15.46769
  },
  {
    "city": "Sanz",
    "province": "60",
    "lat": 39.05,
    "lng": -0.48333
  },
  {
    "city": "San Vicent del Raspeig",
    "province": "60",
    "lat": 38.3964,
    "lng": -0.5255
  },
  {
    "city": "San Vicente de Alcántara",
    "province": "57",
    "lat": 39.36132,
    "lng": -7.13766
  },
  {
    "city": "San Vicente",
    "province": "53",
    "lat": 28.38333,
    "lng": -16.56667
  },
  {
    "city": "Santo Tomé",
    "province": "Ceuta",
    "lat": 38.02861,
    "lng": -3.10092
  },
  {
    "city": "San Torcuato",
    "province": "Ceuta",
    "lat": 37.35,
    "lng": -3.13333
  },
  {
    "city": "Santopétar",
    "province": "Ceuta",
    "lat": 37.45142,
    "lng": -2.03342
  },
  {
    "city": "Santonge",
    "province": "Ceuta",
    "lat": 37.84566,
    "lng": -2.1644
  },
  {
    "city": "Santomera",
    "province": "Navarra",
    "lat": 38.06147,
    "lng": -1.04877
  },
  {
    "city": "Santo Domingo de Moya",
    "province": "54",
    "lat": 39.96667,
    "lng": -1.38333
  },
  {
    "city": "Santo Domingo",
    "province": "57",
    "lat": 38.62709,
    "lng": -7.08935
  },
  {
    "city": "Santo Domingo",
    "province": "57",
    "lat": 38.38333,
    "lng": -6.46667
  },
  {
    "city": "Santo Domingo",
    "province": "Ceuta",
    "lat": 36.74627,
    "lng": -6.40499
  },
  {
    "city": "Santo Ángel",
    "province": "Navarra",
    "lat": 37.94497,
    "lng": -1.12457
  },
  {
    "city": "Sant Jordi",
    "province": "Baleares",
    "lat": 39.5552,
    "lng": 2.77946
  },
  {
    "city": "Santisteban del Puerto",
    "province": "Ceuta",
    "lat": 38.24829,
    "lng": -3.20762
  },
  {
    "city": "Santiponce",
    "province": "Ceuta",
    "lat": 37.43553,
    "lng": -6.04106
  },
  {
    "city": "Santillana",
    "province": "Ceuta",
    "lat": 37.08997,
    "lng": -2.7307
  },
  {
    "city": "Santidad",
    "province": "53",
    "lat": 28.10007,
    "lng": -15.51184
  },
  {
    "city": "Santiago de Mora",
    "province": "54",
    "lat": 38.57093,
    "lng": -1.59973
  },
  {
    "city": "Santiago del Teide",
    "province": "53",
    "lat": 28.294,
    "lng": -16.81618
  },
  {
    "city": "Santiago del Campo",
    "province": "57",
    "lat": 39.6284,
    "lng": -6.36362
  },
  {
    "city": "Santiago de la Ribera",
    "province": "Navarra",
    "lat": 37.79681,
    "lng": -0.80544
  },
  {
    "city": "Santiago de la Espada",
    "province": "Ceuta",
    "lat": 38.11265,
    "lng": -2.5514
  },
  {
    "city": "Santiago de Carbajo",
    "province": "57",
    "lat": 39.60822,
    "lng": -7.23943
  },
  {
    "city": "Santiago de Calatrava",
    "province": "Ceuta",
    "lat": 37.75382,
    "lng": -4.17093
  },
  {
    "city": "Santiago",
    "province": "Ceuta",
    "lat": 37.9358,
    "lng": -4.13866
  },
  {
    "city": "Sant Elm",
    "province": "Baleares",
    "lat": 39.57943,
    "lng": 2.35065
  },
  {
    "city": "San Telmo",
    "province": "Ceuta",
    "lat": 37.79554,
    "lng": -6.96756
  },
  {
    "city": "Es Migjorn Gran",
    "province": "Baleares",
    "lat": 39.94657,
    "lng": 4.05121
  },
  {
    "city": "Santa Úrsula",
    "province": "53",
    "lat": 28.42613,
    "lng": -16.48876
  },
  {
    "city": "Santa Teresa",
    "province": "Ceuta",
    "lat": 37.17149,
    "lng": -3.72151
  },
  {
    "city": "Santa Quiteria",
    "province": "54",
    "lat": 39.25773,
    "lng": -4.36695
  },
  {
    "city": "Santa Pola",
    "province": "60",
    "lat": 38.19165,
    "lng": -0.5658
  },
  {
    "city": "Santa Olalla del Cala",
    "province": "Ceuta",
    "lat": 37.9,
    "lng": -6.21667
  },
  {
    "city": "Santanyí",
    "province": "Baleares",
    "lat": 39.35461,
    "lng": 3.12907
  },
  {
    "city": "Santa Matilde",
    "province": "Ceuta",
    "lat": 37.61667,
    "lng": -5.83333
  },
  {
    "city": "Santa Marta de Magasca",
    "province": "57",
    "lat": 39.5115,
    "lng": -6.09881
  },
  {
    "city": "Santa Marta",
    "province": "54",
    "lat": 39.23333,
    "lng": -2.25
  },
  {
    "city": "Santa Marta",
    "province": "54",
    "lat": 39.14551,
    "lng": -2.29344
  },
  {
    "city": "Santa Marta",
    "province": "57",
    "lat": 38.61421,
    "lng": -6.62799
  },
  {
    "city": "Santa Marina",
    "province": "Ceuta",
    "lat": 38.16771,
    "lng": -3.11903
  },
  {
    "city": "Santa Marina",
    "province": "Ceuta",
    "lat": 38.15,
    "lng": -5.75
  },
  {
    "city": "Santa María de Trassierra",
    "province": "Ceuta",
    "lat": 37.93333,
    "lng": -4.88333
  },
  {
    "city": "Santa María de Nieva",
    "province": "Ceuta",
    "lat": 37.46334,
    "lng": -1.98747
  },
  {
    "city": "Santa María de Nava la Zapatera",
    "province": "57",
    "lat": 38.01667,
    "lng": -6.08333
  },
  {
    "city": "Santa María de los Llanos",
    "province": "54",
    "lat": 39.48333,
    "lng": -2.86667
  },
  {
    "city": "Santa María del Mar",
    "province": "53",
    "lat": 28.4253,
    "lng": -16.30363
  },
  {
    "city": "Santa María del Campo Rus",
    "province": "54",
    "lat": 39.55942,
    "lng": -2.42306
  },
  {
    "city": "Santa María de Gracia",
    "province": "53",
    "lat": 28.46667,
    "lng": -16.26667
  },
  {
    "city": "Santa Maria del Camí",
    "province": "Baleares",
    "lat": 39.65111,
    "lng": 2.77317
  },
  {
    "city": "Santa Maria",
    "province": "54",
    "lat": 38.73798,
    "lng": -2.74544
  },
  {
    "city": "Santa María",
    "province": "57",
    "lat": 38.53333,
    "lng": -5.73333
  },
  {
    "city": "Santa María",
    "province": "Ceuta",
    "lat": 37.65787,
    "lng": -3.53094
  },
  {
    "city": "Santa Margalida",
    "province": "Baleares",
    "lat": 39.70143,
    "lng": 3.10215
  },
  {
    "city": "Santa Lucía",
    "province": "60",
    "lat": 38.81667,
    "lng": 0.15
  },
  {
    "city": "Santa Lucía",
    "province": "Navarra",
    "lat": 37.5988,
    "lng": -0.97144
  },
  {
    "city": "Santa Lucía",
    "province": "53",
    "lat": 28.72504,
    "lng": -17.74776
  },
  {
    "city": "Santa Lucía",
    "province": "53",
    "lat": 27.91174,
    "lng": -15.54071
  },
  {
    "city": "Santa Agnès de Corona",
    "province": "Baleares",
    "lat": 39.03333,
    "lng": 1.33333
  },
  {
    "city": "Santa Inés",
    "province": "Navarra",
    "lat": 38.08767,
    "lng": -1.86465
  },
  {
    "city": "Santa Gertrudis",
    "province": "Baleares",
    "lat": 38.99802,
    "lng": 1.43032
  },
  {
    "city": "Santa Gertrudis",
    "province": "Navarra",
    "lat": 37.67197,
    "lng": -1.65481
  },
  {
    "city": "Santa Fe de Mondújar",
    "province": "Ceuta",
    "lat": 36.97479,
    "lng": -2.53126
  },
  {
    "city": "Santa Fe de los Boliches",
    "province": "Ceuta",
    "lat": 36.55405,
    "lng": -4.61494
  },
  {
    "city": "Santafé",
    "province": "Ceuta",
    "lat": 37.18856,
    "lng": -3.71887
  },
  {
    "city": "Santa Faz",
    "province": "60",
    "lat": 38.38954,
    "lng": -0.44293
  },
  {
    "city": "Santa Eulària des Riu",
    "province": "Baleares",
    "lat": 38.98457,
    "lng": 1.53409
  },
  {
    "city": "Santa Eulalia",
    "province": "Ceuta",
    "lat": 38.0662,
    "lng": -3.38436
  },
  {
    "city": "Santa Eugènia",
    "province": "Baleares",
    "lat": 39.62361,
    "lng": 2.83864
  },
  {
    "city": "Santa Eufemia",
    "province": "Ceuta",
    "lat": 38.6,
    "lng": -4.9
  },
  {
    "city": "Santa Eufemia",
    "province": "Ceuta",
    "lat": 37.30066,
    "lng": -6.0357
  },
  {
    "city": "Santa Engracia",
    "province": "57",
    "lat": 38.91148,
    "lng": -6.98477
  },
  {
    "city": "Santaella",
    "province": "Ceuta",
    "lat": 37.56294,
    "lng": -4.84362
  },
  {
    "city": "Santa Elena",
    "province": "Ceuta",
    "lat": 38.34162,
    "lng": -3.53953
  },
  {
    "city": "Santa Elena",
    "province": "57",
    "lat": 38.26667,
    "lng": -6.03333
  },
  {
    "city": "Santa Cruz de Tenerife",
    "province": "53",
    "lat": 28.46824,
    "lng": -16.25462
  },
  {
    "city": "Santa Cruz de Mudela",
    "province": "54",
    "lat": 38.64241,
    "lng": -3.4665
  },
  {
    "city": "Santa Cruz de Moya",
    "province": "54",
    "lat": 39.95,
    "lng": -1.26667
  },
  {
    "city": "Santa Cruz de los Cáñamos",
    "province": "54",
    "lat": 38.63759,
    "lng": -2.86618
  },
  {
    "city": "Santa Cruz de la Zarza",
    "province": "54",
    "lat": 39.98104,
    "lng": -3.18787
  },
  {
    "city": "Santa Cruz de la Sierra",
    "province": "57",
    "lat": 39.33635,
    "lng": -5.84561
  },
  {
    "city": "Santa Cruz de la Palma",
    "province": "53",
    "lat": 28.68351,
    "lng": -17.76421
  },
  {
    "city": "Santa Cruz del Comercio",
    "province": "Ceuta",
    "lat": 37.06244,
    "lng": -3.97551
  },
  {
    "city": "Santa Cruz",
    "province": "Ceuta",
    "lat": 37.73388,
    "lng": -4.63339
  },
  {
    "city": "Santa Cruz",
    "province": "Ceuta",
    "lat": 37.01727,
    "lng": -2.60362
  },
  {
    "city": "Santa Clara",
    "province": "Ceuta",
    "lat": 37.94213,
    "lng": -7.01664
  },
  {
    "city": "Santa Clara",
    "province": "Ceuta",
    "lat": 37.30738,
    "lng": -7.43355
  },
  {
    "city": "Santa Catalina",
    "province": "53",
    "lat": 28.39088,
    "lng": -16.65909
  },
  {
    "city": "Santa Brígida",
    "province": "53",
    "lat": 28.03197,
    "lng": -15.50425
  },
  {
    "city": "Santa Bárbara de Casa",
    "province": "Ceuta",
    "lat": 37.79665,
    "lng": -7.18735
  },
  {
    "city": "Santa Bárbara",
    "province": "60",
    "lat": 39.38333,
    "lng": -1.43333
  },
  {
    "city": "Santa Bárbara",
    "province": "Ceuta",
    "lat": 37.34944,
    "lng": -1.96613
  },
  {
    "city": "Santa Ana la Real",
    "province": "Ceuta",
    "lat": 37.86245,
    "lng": -6.72385
  },
  {
    "city": "Santa Ana de Pusa",
    "province": "54",
    "lat": 39.76238,
    "lng": -4.70904
  },
  {
    "city": "Santa Ana",
    "province": "57",
    "lat": 39.30823,
    "lng": -5.99027
  },
  {
    "city": "Santa Ana",
    "province": "54",
    "lat": 38.90071,
    "lng": -1.98956
  },
  {
    "city": "Santa Ana",
    "province": "54",
    "lat": 38.67886,
    "lng": -2.10478
  },
  {
    "city": "Santa Ana",
    "province": "57",
    "lat": 38.65,
    "lng": -6.48333
  },
  {
    "city": "Santa Ana",
    "province": "60",
    "lat": 38.3,
    "lng": -0.61667
  },
  {
    "city": "Santa Ana",
    "province": "Navarra",
    "lat": 37.66421,
    "lng": -1.01381
  },
  {
    "city": "Santa Ana",
    "province": "Ceuta",
    "lat": 37.4615,
    "lng": -3.88437
  },
  {
    "city": "Santa Amalia",
    "province": "57",
    "lat": 39.01118,
    "lng": -6.01158
  },
  {
    "city": "Santa Águeda",
    "province": "60",
    "lat": 38.16667,
    "lng": -0.78333
  },
  {
    "city": "San Simón",
    "province": "53",
    "lat": 28.59516,
    "lng": -17.77286
  },
  {
    "city": "San Silvestre de Guzmán",
    "province": "Ceuta",
    "lat": 37.3877,
    "lng": -7.34908
  },
  {
    "city": "San Sebastián de los Ballesteros",
    "province": "Ceuta",
    "lat": 37.65376,
    "lng": -4.82409
  },
  {
    "city": "San Sebastián de la Gomera",
    "province": "53",
    "lat": 28.09163,
    "lng": -17.11331
  },
  {
    "city": "San Roque",
    "province": "57",
    "lat": 38.87886,
    "lng": -6.95796
  },
  {
    "city": "San Roque",
    "province": "Ceuta",
    "lat": 36.83759,
    "lng": -2.9694
  },
  {
    "city": "San Roque",
    "province": "Ceuta",
    "lat": 36.20983,
    "lng": -5.38452
  },
  {
    "city": "San Roque",
    "province": "53",
    "lat": 28.0,
    "lng": -15.45
  },
  {
    "city": "San Rafael",
    "province": "Ceuta",
    "lat": 36.93582,
    "lng": -5.91105
  },
  {
    "city": "San Quintín",
    "province": "54",
    "lat": 38.81569,
    "lng": -4.28415
  },
  {
    "city": "San Platón",
    "province": "Ceuta",
    "lat": 37.7614,
    "lng": -6.68154
  },
  {
    "city": "San Pedro de Mérida",
    "province": "57",
    "lat": 38.95007,
    "lng": -6.18645
  },
  {
    "city": "San Pedro del Pinatar",
    "province": "Navarra",
    "lat": 37.83568,
    "lng": -0.79102
  },
  {
    "city": "San Pedro de la Mata",
    "province": "54",
    "lat": 39.93911,
    "lng": -4.43324
  },
  {
    "city": "San Pedro de Daute",
    "province": "53",
    "lat": 28.36667,
    "lng": -16.75
  },
  {
    "city": "San Pedro Alcántara",
    "province": "Ceuta",
    "lat": 36.48839,
    "lng": -4.99123
  },
  {
    "city": "San Pedro",
    "province": "57",
    "lat": 39.36777,
    "lng": -7.29072
  },
  {
    "city": "San Pedro",
    "province": "54",
    "lat": 38.82493,
    "lng": -2.18276
  },
  {
    "city": "San Pedro",
    "province": "Ceuta",
    "lat": 37.2386,
    "lng": -2.79147
  },
  {
    "city": "San Pedro",
    "province": "Ceuta",
    "lat": 36.90346,
    "lng": -1.98076
  },
  {
    "city": "San Pedro",
    "province": "53",
    "lat": 28.66089,
    "lng": -17.79006
  },
  {
    "city": "San Pedro",
    "province": "53",
    "lat": 28.08099,
    "lng": -15.67153
  },
  {
    "city": "San Pablo",
    "province": "54",
    "lat": 39.54019,
    "lng": -4.3317
  },
  {
    "city": "San Pablo",
    "province": "Ceuta",
    "lat": 36.46657,
    "lng": -5.41163
  },
  {
    "city": "San Nicolás del Puerto",
    "province": "Ceuta",
    "lat": 38.0,
    "lng": -5.65
  },
  {
    "city": "San Nicolás",
    "province": "53",
    "lat": 27.9891,
    "lng": -15.78126
  },
  {
    "city": "San Miguel de Salinas",
    "province": "60",
    "lat": 37.97972,
    "lng": -0.78904
  },
  {
    "city": "San Miguel de Geneto",
    "province": "53",
    "lat": 28.45856,
    "lng": -16.32524
  },
  {
    "city": "Sant Miquel de Balansat",
    "province": "Baleares",
    "lat": 39.05372,
    "lng": 1.43689
  },
  {
    "city": "San Miguel",
    "province": "Ceuta",
    "lat": 37.76175,
    "lng": -6.75617
  },
  {
    "city": "San Miguel",
    "province": "53",
    "lat": 28.387,
    "lng": -16.53864
  },
  {
    "city": "San Miguel De Abona",
    "province": "53",
    "lat": 28.09826,
    "lng": -16.61708
  },
  {
    "city": "San Martín de Pusa",
    "province": "54",
    "lat": 39.78404,
    "lng": -4.63252
  },
  {
    "city": "San Martín de Montalbán",
    "province": "54",
    "lat": 39.70186,
    "lng": -4.38796
  },
  {
    "city": "San Martín de Boniches",
    "province": "54",
    "lat": 39.9,
    "lng": -1.56667
  },
  {
    "city": "San Martín",
    "province": "Ceuta",
    "lat": 37.96962,
    "lng": -2.99989
  },
  {
    "city": "San Martín",
    "province": "Ceuta",
    "lat": 36.3429,
    "lng": -5.31874
  },
  {
    "city": "San Luis de Sabinillas",
    "province": "Ceuta",
    "lat": 36.36781,
    "lng": -5.22803
  },
  {
    "city": "Sant Lluís",
    "province": "Baleares",
    "lat": 39.84939,
    "lng": 4.25819
  },
  {
    "city": "San Luis",
    "province": "53",
    "lat": 28.51944,
    "lng": -16.35386
  },
  {
    "city": "Sanlúcar la Mayor",
    "province": "Ceuta",
    "lat": 37.38758,
    "lng": -6.20346
  },
  {
    "city": "Sanlúcar de Guadiana",
    "province": "Ceuta",
    "lat": 37.47268,
    "lng": -7.46546
  },
  {
    "city": "Sanlúcar de Barrameda",
    "province": "Ceuta",
    "lat": 36.77808,
    "lng": -6.3515
  },
  {
    "city": "San Lorenzo de la Parrilla",
    "province": "54",
    "lat": 39.85129,
    "lng": -2.36079
  },
  {
    "city": "Sant Llorenç des Cardassar",
    "province": "Baleares",
    "lat": 39.61009,
    "lng": 3.2838
  },
  {
    "city": "San Lorenzo de Calatrava",
    "province": "54",
    "lat": 38.47681,
    "lng": -3.82605
  },
  {
    "city": "San Lorenzo",
    "province": "53",
    "lat": 28.07668,
    "lng": -15.47673
  },
  {
    "city": "San Lázaro",
    "province": "Ceuta",
    "lat": 37.41667,
    "lng": -5.96667
  },
  {
    "city": "San Lázaro",
    "province": "Ceuta",
    "lat": 36.91619,
    "lng": -5.70494
  },
  {
    "city": "San Julián",
    "province": "Navarra",
    "lat": 37.69612,
    "lng": -1.63335
  },
  {
    "city": "San Juan del Reparo",
    "province": "53",
    "lat": 28.35796,
    "lng": -16.75784
  },
  {
    "city": "San Juan del Puerto",
    "province": "Ceuta",
    "lat": 37.31667,
    "lng": -6.84139
  },
  {
    "city": "San Juan de la Rambla",
    "province": "53",
    "lat": 28.39276,
    "lng": -16.65015
  },
  {
    "city": "San Juan de Énova",
    "province": "60",
    "lat": 39.07104,
    "lng": -0.48705
  },
  {
    "city": "San Juan de Aznalfarache",
    "province": "Ceuta",
    "lat": 37.35813,
    "lng": -6.03731
  },
  {
    "city": "Sant Joan d'Alacant",
    "province": "60",
    "lat": 38.40148,
    "lng": -0.43623
  },
  {
    "city": "Sant Joan de Labritja",
    "province": "Baleares",
    "lat": 39.07891,
    "lng": 1.51397
  },
  {
    "city": "Sant Joan",
    "province": "Baleares",
    "lat": 39.59621,
    "lng": 3.0392
  },
  {
    "city": "San Juan",
    "province": "60",
    "lat": 39.53333,
    "lng": -1.16667
  },
  {
    "city": "San Juan",
    "province": "60",
    "lat": 38.61925,
    "lng": -0.87841
  },
  {
    "city": "Playa de San Juan",
    "province": "53",
    "lat": 28.18159,
    "lng": -16.81689
  },
  {
    "city": "Sant Josep de sa Talaia",
    "province": "Baleares",
    "lat": 38.92239,
    "lng": 1.29437
  },
  {
    "city": "San José",
    "province": "Ceuta",
    "lat": 38.1,
    "lng": -3.61667
  },
  {
    "city": "San José",
    "province": "Ceuta",
    "lat": 37.60715,
    "lng": -5.71603
  },
  {
    "city": "San José de la Rinconada",
    "province": "Ceuta",
    "lat": 37.48575,
    "lng": -5.94205
  },
  {
    "city": "San José",
    "province": "Ceuta",
    "lat": 37.49216,
    "lng": -4.05172
  },
  {
    "city": "San José",
    "province": "Ceuta",
    "lat": 36.76048,
    "lng": -2.10912
  },
  {
    "city": "San Jorge",
    "province": "57",
    "lat": 38.64497,
    "lng": -7.05798
  },
  {
    "city": "San Jerónimo",
    "province": "Ceuta",
    "lat": 37.42454,
    "lng": -5.98458
  },
  {
    "city": "San Jerónimo",
    "province": "53",
    "lat": 28.392,
    "lng": -16.55323
  },
  {
    "city": "San Javier",
    "province": "Navarra",
    "lat": 37.80626,
    "lng": -0.83736
  },
  {
    "city": "San Isidro",
    "province": "57",
    "lat": 38.53187,
    "lng": -6.3473
  },
  {
    "city": "San Isidro",
    "province": "Navarra",
    "lat": 37.65585,
    "lng": -1.08659
  },
  {
    "city": "San Isidro",
    "province": "53",
    "lat": 28.41575,
    "lng": -16.31958
  },
  {
    "city": "San Isidro",
    "province": "53",
    "lat": 28.13467,
    "lng": -15.6605
  },
  {
    "city": "San Isidro",
    "province": "53",
    "lat": 28.07617,
    "lng": -16.558
  },
  {
    "city": "Sangrera",
    "province": "54",
    "lat": 39.91667,
    "lng": -4.7
  },
  {
    "city": "Sangonera la Verde",
    "province": "Navarra",
    "lat": 37.92862,
    "lng": -1.20794
  },
  {
    "city": "San Ginés de la Jara",
    "province": "Navarra",
    "lat": 37.64106,
    "lng": -0.82278
  },
  {
    "city": "Sant Francesc de Formentera",
    "province": "Baleares",
    "lat": 38.70566,
    "lng": 1.42893
  },
  {
    "city": "San Francisco de Paula",
    "province": "53",
    "lat": 28.04956,
    "lng": -15.43681
  },
  {
    "city": "San Francisco",
    "province": "Ceuta",
    "lat": 36.5484,
    "lng": -4.61941
  },
  {
    "city": "Sant Francesc",
    "province": "Baleares",
    "lat": 39.51667,
    "lng": 2.75
  },
  {
    "city": "San Fernando",
    "province": "Ceuta",
    "lat": 36.4759,
    "lng": -6.19817
  },
  {
    "city": "San Fernando",
    "province": "53",
    "lat": 28.09046,
    "lng": -15.58368
  },
  {
    "city": "San Felipe de Neri",
    "province": "60",
    "lat": 38.17759,
    "lng": -0.79728
  },
  {
    "city": "San Felipe",
    "province": "53",
    "lat": 28.371,
    "lng": -16.7215
  },
  {
    "city": "San Felipe",
    "province": "53",
    "lat": 28.14542,
    "lng": -15.59492
  },
  {
    "city": "Sanet y Negrals",
    "province": "60",
    "lat": 38.81967,
    "lng": -0.03406
  },
  {
    "city": "Sancti Spíritus",
    "province": "57",
    "lat": 38.92592,
    "lng": -5.14671
  },